id,name,state_code,latitude,longitude
57584,Abhaneri,Rajasthan,27.00743,76.6076
57585,Abhayapuri,Assam,26.32255,90.68526
57586,Abiramam,Tamil Nadu,9.4423,78.4399
57587,Abohar,Punjab,30.14453,74.19552
57588,Abrama,Gujarat,20.85865,72.90648
57589,Achalpur,Maharashtra,21.25665,77.51006
57590,Achhnera,Uttar Pradesh,27.17826,77.75674
57591,Adalaj,Gujarat,23.16453,72.58107
57592,Adampur,Punjab,31.43224,75.71484
57593,Addanki,Andhra Pradesh,15.81061,79.97338
57594,Adirampattinam,Tamil Nadu,10.34059,79.37905
57595,Aduthurai,Tamil Nadu,11.01542,79.48093
57596,Adur,Kerala,9.15595,76.73192
57597,Afzalgarh,Uttar Pradesh,29.3937,78.67393
57598,Afzalpur,Karnataka,17.19986,76.36018
57599,Agar,Madhya Pradesh,23.71177,76.01571
57600,Agartala,Tripura,23.83605,91.27939
57601,Agra,Uttar Pradesh,27.18333,78.01667
57604,Ahmadpur,Maharashtra,18.70622,76.93731
57606,Ahmedabad,Gujarat,23.02579,72.58727
57607,Ahraura,Uttar Pradesh,25.01579,83.03294
57608,Ahwa,Gujarat,20.75718,73.68626
57609,Airoli,Maharashtra,19.15096,72.99625
57610,Aizawl,Mizoram,23.8,92.9
57611,Ajaigarh,Madhya Pradesh,24.89879,80.25921
57612,Ajitgarh,Punjab,30.65,76.7
57613,Ajjampur,Karnataka,13.72794,76.0068
57614,Ajmer,Rajasthan,26.25,74.66667
57615,Ajnala,Punjab,31.84473,74.76295
57616,Ayodhya,Uttar Pradesh,26.79909,82.2047
57617,Ajara,Maharashtra,16.11601,74.21097
57618,Akalkot,Maharashtra,17.52532,76.20611
57619,Akaltara,Chhattisgarh,22.02463,82.42641
57620,Akasahebpet,Andhra Pradesh,17.50455,82.56597
57621,Akbarpur,Uttar Pradesh,26.42953,82.53431
57622,Akhnur,Jammu and Kashmir,32.86667,74.73333
57623,Akividu,Andhra Pradesh,16.58225,81.38112
57624,Akkarampalle,Andhra Pradesh,13.65,79.42
57625,Aklera,Rajasthan,24.41288,76.56719
57626,Akodia,Madhya Pradesh,23.38027,76.59875
57627,Akola,Maharashtra,20.5,77.16667
57628,Akot,Maharashtra,21.0963,77.0588
57629,Akalgarh,Punjab,29.82074,75.89078
57630,Alagapuram,Tamil Nadu,11.88705,78.91758
57631,Alampur,Madhya Pradesh,26.02514,78.79697
57632,Aland,Karnataka,17.56425,76.56854
57633,Alandi,Maharashtra,18.67756,73.89868
57634,Alandur,Tamil Nadu,13.0025,80.20611
57635,Alanganallur,Tamil Nadu,10.04697,78.09033
57636,Alangayam,Tamil Nadu,12.62235,78.75207
57637,Alappuzha,Kerala,9.49004,76.3264
57638,Aldona,Goa,15.59337,73.87482
57639,Alirajpur,Madhya Pradesh,22.31384,74.36452
57640,Prayagraj (Allahabad),Uttar Pradesh,25.42012,81.88385
57641,Allahganj,Uttar Pradesh,27.5454,79.68715
57642,Allapalli,Maharashtra,19.43172,80.06377
57643,Almora,,29.69223,79.49789
57644,Alnavar,Karnataka,15.42727,74.74111
57645,Along,Arunachal Pradesh,28.16951,94.8006
57646,Alot,Madhya Pradesh,23.76336,75.55662
57647,Aluva,Kerala,10.10764,76.35158
57648,Alwa Tirunagari,Tamil Nadu,8.60635,77.93983
57649,Alwar,Rajasthan,27.5,76.5
57650,Alwaye,Kerala,10.10649,76.35484
57651,Alawalpur,Punjab,31.43161,75.65614
57652,Alibag,Maharashtra,18.64813,72.87579
57653,Aliganj,Uttar Pradesh,27.49358,79.17127
57654,Aligarh,Uttar Pradesh,27.83333,78.16667
57655,Alipur,Delhi,28.79862,77.13314
57656,Alur,Karnataka,12.97805,75.99094
57657,Amalner,Maharashtra,21.03983,75.05887
57658,Amalapuram,Andhra Pradesh,16.57868,82.00609
57659,Amarkantak,Madhya Pradesh,22.67486,81.75908
57660,Amarnath,Maharashtra,19.2,73.16667
57661,Amarpur,Bihar,25.03967,86.90247
57662,Amarpur,Tripura,23.5257,91.65879
57663,Amarpatan,Madhya Pradesh,24.31371,80.97703
57664,Amarwara,Madhya Pradesh,22.2978,79.16943
57665,Ambad,Maharashtra,19.61301,75.78906
57666,Ambahta,Uttar Pradesh,29.85706,77.33583
57667,Ambasamudram,Tamil Nadu,8.71068,77.4519
57668,Ambattur,Tamil Nadu,13.09818,80.16152
57669,Ambedkar Nagar,Uttar Pradesh,26.40544,82.69762
57670,Ambikapur,Chhattisgarh,23.11892,83.19537
57671,Ambur,Tamil Nadu,12.79163,78.71644
57672,Ambagarh Chauki,Chhattisgarh,20.77644,80.74608
57673,Ambah,Madhya Pradesh,26.70423,78.22678
57674,Ambajogai,Maharashtra,18.73312,76.38616
57675,Ambala,Haryana,30.32854,76.9422
57676,Amet,Rajasthan,25.30609,73.9258
57677,Amethi,Uttar Pradesh,28.01667,81.05
57679,Amguri,Assam,26.81482,94.52614
57680,Amla,Madhya Pradesh,21.92485,78.12786
57681,Amloh,Punjab,30.60837,76.23199
57682,Ammapettai,Tamil Nadu,10.79476,79.31986
57683,Amod,Gujarat,21.99317,72.87047
57685,Amreli,Gujarat,21.50789,71.18323
57686,Amritsar,Punjab,31.67,74.84
57687,Amroha,Uttar Pradesh,28.90314,78.46984
57688,Amroli,Gujarat,21.25084,72.83878
57689,Amravati,Maharashtra,20.93333,77.75
57690,Amudalavalasa,Andhra Pradesh,18.41025,83.90295
57691,Amanganj,Madhya Pradesh,24.42664,80.03579
57692,Amanpur,Uttar Pradesh,27.71222,78.73788
57693,Anakapalle,Andhra Pradesh,17.69134,83.00395
57694,Anamalais,Tamil Nadu,10.58303,76.93441
57695,Anand,Gujarat,22.4,72.75
57696,Anandnagar,Uttar Pradesh,27.10062,83.27156
57697,Anandpur Sahib,Punjab,31.23926,76.50253
57698,Anantapur,Andhra Pradesh,14.55,77.41667
57699,Anantnag,Jammu and Kashmir,33.73068,75.15418
57701,Andol,Telangana,17.81458,78.07713
57702,Anekal,Karnataka,12.7111,77.69557
57703,Angamali,Kerala,10.19055,76.38789
57704,Angul,Odisha,20.84089,85.10192
57705,Angul District,Odisha,20.84903,85.06079
57706,Anjad,Madhya Pradesh,22.04171,75.05519
57707,Anjangaon,Maharashtra,21.16516,77.3091
57708,Anjaw,Arunachal Pradesh,28.06549,96.82878
57709,Anjar,Gujarat,23.11316,70.02671
57710,Ankleshwar,Gujarat,21.63236,72.99001
57711,Ankola,Karnataka,14.66049,74.3047
57712,Annavasal,Tamil Nadu,10.4606,78.70029
57713,Annigeri,Karnataka,15.42513,75.4335
57714,Annur,Tamil Nadu,11.23616,77.10514
57715,Annamalainagar,Tamil Nadu,11.4,79.73333
57716,Anshing,Maharashtra,20.0409,77.31501
57717,Anta,Rajasthan,25.15,76.3
57718,Anthiyur,Tamil Nadu,11.57506,77.59043
57719,Antri,Madhya Pradesh,26.05804,78.21027
57720,Antu,Uttar Pradesh,26.05654,81.90267
57721,Anuppur,Madhya Pradesh,23.05674,81.68399
57722,Anupgarh,Rajasthan,29.19111,73.20861
57724,Anupshahr,Uttar Pradesh,28.35748,78.26914
57725,Aonla,Uttar Pradesh,28.27402,79.16521
57726,Arakkonam,Tamil Nadu,13.08449,79.67053
57727,Arambol,Goa,15.68681,73.70449
57728,Arang,Chhattisgarh,21.19639,81.96912
57729,Arantangi,Tamil Nadu,10.17235,78.99118
57730,Araria,Bihar,26.2,87.4
57731,Arcot,Tamil Nadu,12.90569,79.31897
57732,Arimalam,Tamil Nadu,10.25498,78.88403
57733,Ariyalur,Tamil Nadu,11.15,79.25
57735,Arkalgud,Karnataka,12.76171,76.06035
57736,Arki,Himachal Pradesh,31.15196,76.96675
57737,Arni,Tamil Nadu,12.66771,79.28529
57738,Aroor,Kerala,9.8694,76.30498
57739,Arrah,Bihar,25.55629,84.66335
57740,Arsikere,Karnataka,13.31446,76.25704
57741,Artist Village,Maharashtra,19.03227,73.04276
57742,Arukutti,Kerala,9.86667,76.35
57743,Arumbavur,Tamil Nadu,11.38096,78.72965
57744,Arumuganeri,Tamil Nadu,8.5688,78.09091
57745,Aruppukkottai,Tamil Nadu,9.5096,78.09588
57746,Aruvankad,Tamil Nadu,11.36315,76.7579
57747,Arwal,Bihar,25.16158,84.6904
57749,Asarganj,Bihar,25.15046,86.68639
57750,Ashoknagar,Madhya Pradesh,24.58,77.73
57751,Ashta,Maharashtra,16.94943,74.40936
57752,Ashta,Madhya Pradesh,23.01754,76.72208
57753,Ashti,Maharashtra,19.37671,76.2252
57754,Asifabad,Telangana,19.35851,79.28415
57755,Atarra,Uttar Pradesh,25.28618,80.57155
57756,Ateli Mandi,Haryana,28.1008,76.2598
57757,Athni,Karnataka,16.72613,75.06421
57758,Atmakur,Andhra Pradesh,15.88109,78.58704
57759,Atraulia,Uttar Pradesh,26.3333,82.94727
57760,Atrauli,Uttar Pradesh,28.02964,78.28571
57761,Attili,Andhra Pradesh,16.7,81.6
57762,Attingal,Kerala,8.69609,76.81507
57763,Attur,Tamil Nadu,11.59414,78.60143
57764,Auraiya,Uttar Pradesh,26.64692,79.42858
57765,Aurangabad,Maharashtra,19.88467,75.33986
57766,Aurangabad,Bihar,24.75204,84.3742
57767,Auroville,Tamil Nadu,12.00549,79.80885
57768,Aurad,Karnataka,18.25397,77.41761
57769,Auras,Uttar Pradesh,26.91414,80.50792
57770,Ausa,Maharashtra,18.24728,76.4993
57771,Avanigadda,Andhra Pradesh,16.02148,80.91808
57772,Avanoor,Kerala,10.60826,76.1762
57773,Avinashi,Tamil Nadu,11.19297,77.26865
57774,Awantipur,Jammu and Kashmir,33.91978,75.01515
57775,Ayakudi,Tamil Nadu,10.44992,77.55198
57776,Ayyampettai,Tamil Nadu,10.90141,79.17984
57777,Azamgarh,Uttar Pradesh,26.06832,83.18358
57778,Azhikkal,Kerala,11.91524,75.34761
57779,Baberu,Uttar Pradesh,25.54711,80.70443
57780,Babrala,Uttar Pradesh,28.26419,78.4056
57781,Babugarh,Uttar Pradesh,28.72353,77.84677
57782,Babina,Uttar Pradesh,25.23947,78.47028
57783,Bachhraon,Uttar Pradesh,28.92694,78.23456
57784,Bachhrawan,Uttar Pradesh,26.4709,81.1158
57785,Bada Barabil,Odisha,22.11186,85.38684
57786,Vatakara,Kerala,11.59776,75.58142
57787,Badarpur,Assam,24.86852,92.59606
57788,Badarwas,Madhya Pradesh,24.97516,77.5649
57789,Baddi,Himachal Pradesh,30.95783,76.79136
57790,Badgam,Jammu and Kashmir,33.89001,74.66297
57791,Badhni Kalan,Punjab,30.6813,75.29087
57792,Badlapur,Maharashtra,19.15516,73.26553
57793,Badnawar,Madhya Pradesh,23.02181,75.23268
57794,Badvel,Andhra Pradesh,14.7451,79.06288
57795,Baga,Goa,15.56517,73.75517
57796,Bagaha,Bihar,27.09918,84.09003
57797,Bagalkot,Karnataka,16.18,75.69
57798,Bagar,Rajasthan,28.18784,75.50012
57799,Bagasra,Gujarat,21.48719,70.95516
57800,Bageshwar,,29.97315,79.83224
57801,Baghpat,Uttar Pradesh,28.95,77.2167
57802,Bagra,Jharkhand,23.73333,86.31667
57803,Baheri,Uttar Pradesh,28.77416,79.4974
57804,Bahjoi,Uttar Pradesh,28.39502,78.62659
57805,Bahraich,Uttar Pradesh,27.80021,81.51855
57806,Bahraigh,Uttar Pradesh,27.57429,81.59474
57807,Bahsuma,Uttar Pradesh,29.20063,77.97221
57808,Bahua,Uttar Pradesh,25.83942,80.62255
57809,Bahadurganj,Bihar,26.26172,87.82443
57810,Bahadurgarh,Haryana,28.69287,76.93555
57811,Baihar,Madhya Pradesh,22.10133,80.54967
57812,Baikunthpur,Chhattisgarh,23.26206,82.56051
57813,Baikunthpur,Madhya Pradesh,24.72768,81.40975
57814,Bail-Hongal,Karnataka,15.8137,74.85895
57815,Bairagnia,Bihar,26.74063,85.27323
57816,Baisi,Bihar,25.86302,87.74487
57817,Bakewar,Uttar Pradesh,26.66226,79.17625
57818,Bakhtiyarpur,Bihar,25.46179,85.53179
57819,Bakloh,Punjab,32.47939,75.91874
57820,Baksa,Assam,26.69804,91.15142
57821,Bakshwaha,Madhya Pradesh,24.25106,79.28618
57822,Bakani,Rajasthan,24.28624,76.23709
57823,Balasore,Odisha,21.49266,86.93348
57824,Baldeogarh,Madhya Pradesh,24.75619,79.06715
57825,Baldev,Uttar Pradesh,27.40684,77.82214
57826,Balimila,Odisha,18.25167,82.10659
57827,Ballari,Karnataka,15.15,76.55
57828,Ballia,Uttar Pradesh,25.83333,84.16667
57829,Ballalpur,Maharashtra,19.84696,79.34578
57830,Balod,Chhattisgarh,20.73081,81.20578
57831,Baloda,Chhattisgarh,22.1389,82.48171
57832,Baloda Bazar,Chhattisgarh,21.65678,82.16062
57833,Balrampur,Uttar Pradesh,27.43449,82.40281
57835,Balangir,Odisha,20.75,83.25
57836,Bambolim,Goa,15.46361,73.8531
57837,Bamboo Flat,Andaman and Nicobar Islands,11.7,92.71667
57838,Bamna,Madhya Pradesh,23.09454,74.76164
57839,Bamora,Madhya Pradesh,24.05539,78.08925
57840,Banat,Uttar Pradesh,29.46355,77.35478
57841,Banbasa,Uttar Pradesh,28.99132,80.07608
57842,Banda,Madhya Pradesh,24.04488,78.96094
57843,Bandipore,Jammu and Kashmir,34.50404,74.82832
57845,Bandora,Goa,15.40823,73.98129
57846,Banga,Punjab,31.18874,75.99495
57847,Bangalore Rural,Karnataka,13.22567,77.57501
57848,Bangalore Urban,Karnataka,13.0,77.58333
57849,Banganapalle,Andhra Pradesh,15.31771,78.22669
57850,Bangaon,Bihar,25.86728,86.51152
57851,Bangarapet,Karnataka,12.99116,78.17804
57852,Banihal,Jammu and Kashmir,33.43647,75.19684
57853,Banjar,Himachal Pradesh,31.639,77.34055
57854,Banka,Bihar,24.89214,86.98425
57855,Banmankhi,Bihar,25.88857,87.19421
57856,Bannur,Karnataka,12.33295,76.86201
57857,Bantval,Karnataka,12.8905,75.03489
57858,Banas Kantha,Gujarat,24.25,72.5
57859,Banur,Punjab,30.55407,76.71948
57860,Bar Bigha,Bihar,25.21855,85.7332
57861,Bara Uchana,Haryana,29.46747,76.17798
57862,Baragarh,Odisha,21.33333,83.61667
57863,Baran,Rajasthan,25.09,76.66
57864,Barauli,Bihar,26.38109,84.58648
57865,Baraut,Uttar Pradesh,29.10199,77.26334
57866,Barbil,Odisha,22.10194,85.37752
57867,Bareilly,Uttar Pradesh,28.41667,79.38333
57868,Barela,Madhya Pradesh,23.09678,80.05084
57869,Bargarh,Odisha,21.33348,83.61905
57870,Barghat,Madhya Pradesh,22.03065,79.7328
57871,Bargi,Madhya Pradesh,22.99138,79.8755
57872,Barhi,Madhya Pradesh,23.90326,80.81516
57873,Barhiya,Bihar,25.28814,86.02055
57874,Bari Sadri,Rajasthan,24.41339,74.47331
57875,Bariarpur,Bihar,25.28791,86.57643
57876,Barjala,Tripura,23.6182,91.35596
57877,Barkhera Kalan,Uttar Pradesh,28.45209,79.80655
57878,Barki Saria,Jharkhand,24.17594,85.88938
57879,Barkot,,30.80861,78.20596
57880,Barka Kana,Jharkhand,23.62118,85.46748
57882,Barnala,Punjab,30.37451,75.5487
57883,Barpathar,Assam,26.28709,93.88844
57884,Barpeta,Assam,26.47104,91.0308
57885,Barpeta Road,Assam,26.50284,90.96937
57886,Barpali,Odisha,21.19005,83.58721
57887,Barsana,Uttar Pradesh,27.64802,77.3764
57888,Barwani,Madhya Pradesh,22.02485,74.91805
57889,Barwadih,Jharkhand,23.8478,84.11049
57890,Barwala,Haryana,29.36747,75.90809
57892,Baragaon,Uttar Pradesh,25.47554,78.71224
57893,Basavakalyan,Karnataka,17.87445,76.94972
57894,Basavana Bagevadi,Karnataka,16.57278,75.97252
57895,Basi,Rajasthan,26.8315,76.04856
57897,Basmat,Maharashtra,19.32872,77.15746
57898,Basna,Chhattisgarh,21.27885,82.8267
57899,Basni,Rajasthan,27.17232,73.64519
57900,Bastar,Chhattisgarh,19.26794,81.73828
57901,Basti,Uttar Pradesh,26.82816,82.77924
57903,Baswa,Rajasthan,27.14955,76.58345
57904,Bhatinda,Punjab,30.20747,74.93893
57905,Batoti,Jammu and Kashmir,33.11826,75.30889
57906,Batala,Punjab,31.80921,75.20294
57907,Baud,Odisha,20.83773,84.32618
57908,Baudh,Odisha,20.833,84.333
57909,Bawana,Delhi,28.7982,77.03431
57910,Bayana,Rajasthan,26.90791,77.28985
57911,Bedi,Gujarat,22.50143,70.04363
57912,Beed,Maharashtra,18.98921,75.75634
57913,Begamganj,Madhya Pradesh,23.59917,78.34064
57914,Begowal,Punjab,31.61152,75.52135
57915,Begusarai,Bihar,25.41853,86.13389
57917,Begun,Rajasthan,24.98333,75.0
57918,Behat,Uttar Pradesh,30.1718,77.6139
57919,Behror,Rajasthan,27.88832,76.28108
57920,Bela,Uttar Pradesh,25.92058,81.99629
57921,Belaguntha,Odisha,19.88249,84.63801
57922,Belagavi,Karnataka,16.33333,74.75
57923,Bellampalli,Telangana,19.05577,79.493
57925,Belluru,Karnataka,12.9814,76.73308
57926,Belonia,Tripura,23.25178,91.45407
57927,Belsand,Bihar,26.44365,85.40076
57928,Beltangadi,Karnataka,13.98333,75.3
57929,Belur,Tamil Nadu,11.70752,78.41437
57930,Belur,Karnataka,13.16558,75.86519
57931,Bemetara,Chhattisgarh,21.71556,81.53423
57932,Benaulim,Goa,15.26435,73.92812
57933,Bengaluru,Karnataka,12.97194,77.59369
57934,Beniganj,Uttar Pradesh,27.29293,80.44364
57935,Beohari,Madhya Pradesh,24.02423,81.37831
57936,Berasia,Madhya Pradesh,23.63134,77.43351
57937,Beri Khas,Haryana,28.70146,76.57708
57938,Beswan,Uttar Pradesh,27.63792,77.88019
57939,Betamcherla,Andhra Pradesh,15.45144,78.14797
57940,Betma,Madhya Pradesh,22.68653,75.61456
57941,Bettiah,Bihar,26.80229,84.50311
57942,Betul,Madhya Pradesh,21.83333,77.83333
57943,Betul Bazar,Madhya Pradesh,21.85572,77.92913
57944,Bewar,Uttar Pradesh,27.21869,79.29761
57945,Beypore,Kerala,11.17151,75.80611
57946,Beawar,Rajasthan,26.10119,74.32028
57947,Bhabhua,Bihar,25.04049,83.60749
57948,Bhachau,Gujarat,23.29858,70.34279
57949,Bhadarwah,Jammu and Kashmir,32.97941,75.71723
57950,Bhadaur,Punjab,30.47651,75.33049
57951,Bhadohi,Uttar Pradesh,25.39526,82.5703
57952,Bhadradri Kothagudem,Telangana,17.5546,80.61976
57953,Bhadrak,Odisha,21.0,86.6
57954,Bhadrakh,Odisha,21.05447,86.5156
57955,Bhadrachalam,Telangana,17.66846,80.88887
57956,Bhadravati,Karnataka,13.84846,75.70502
57957,Bhagirathpur,Bihar,26.2695,86.06346
57958,Bhagwantnagar,Uttar Pradesh,26.22383,80.7575
57959,Bhainsdehi,Madhya Pradesh,21.64491,77.63023
57960,Bhaisa,Telangana,19.11285,77.96336
57961,Bhandara,Maharashtra,21.18333,80.0
57963,Bhanjanagar,Odisha,19.92719,84.58201
57964,Bharatpur,Rajasthan,27.21,77.29
57965,Bharthana,Uttar Pradesh,26.75231,79.2218
57966,Bharwari,Uttar Pradesh,25.56078,81.49164
57967,Bharuch,Gujarat,21.69482,72.9805
57968,Bhasawar,Rajasthan,27.03895,77.04849
57969,Bhatgaon,Chhattisgarh,21.15,81.7
57970,Bhatkal,Karnataka,13.98534,74.55531
57971,Bhattiprolu,Andhra Pradesh,16.1026,80.78074
57972,Bhavnagar,Gujarat,21.76287,72.15331
57973,Bhavani,Tamil Nadu,11.44553,77.68215
57974,Bhawanipur,Bihar,26.45352,87.02744
57975,Bhawaniganj,Madhya Pradesh,24.41582,75.83552
57976,Bhawanipatna,Odisha,19.90717,83.16697
57977,Bhawanigarh,Punjab,30.26685,76.03854
57978,Bhayandar,Maharashtra,19.30157,72.85107
57979,Bhigvan,Maharashtra,18.3007,74.76701
57980,Bhikangaon,Madhya Pradesh,21.86764,75.96391
57981,Bhilai,Chhattisgarh,21.20919,81.4285
57982,Bhind,Madhya Pradesh,26.5,78.75
57983,Bhindar,Rajasthan,24.50235,74.18551
57984,Bhinga,Uttar Pradesh,27.70283,81.9343
57985,Bhitarwar,Madhya Pradesh,25.79216,78.11085
57986,Bhiwadi,Rajasthan,28.21024,76.86056
57987,Bhiwandi,Maharashtra,19.30023,73.05881
57988,Bhiwani,Haryana,28.75,76.16667
57990,Bhogpur,Punjab,31.55442,75.64271
57991,Bhojpur,Bihar,25.30886,84.44504
57992,Bhojudih,Jharkhand,23.63962,86.44105
57993,Bhongaon,Uttar Pradesh,27.25515,79.18118
57994,Bhongir,Telangana,17.51544,78.88563
57995,Bhopal,Madhya Pradesh,23.25469,77.40289
57997,Bhor,Maharashtra,18.14861,73.84336
57998,Bhowali,,29.38985,79.50481
57999,Bhuban,Odisha,20.88197,85.83334
58000,Bhubaneswar,Odisha,20.27241,85.83385
58001,Bhudgaon,Maharashtra,16.90742,74.59954
58002,Bhuj,Gujarat,23.25397,69.66928
58004,Bhuma,Rajasthan,27.78333,74.93333
58005,Bhusaval,Maharashtra,21.04365,75.78506
58006,Bhabhra,Madhya Pradesh,22.53048,74.32846
58007,Bhadra,Rajasthan,29.10298,75.17138
58008,Bhadasar,Rajasthan,28.31457,74.28952
58009,Bhagalpur,Bihar,25.29023,87.06665
58010,Bhalki,Karnataka,18.04348,77.206
58011,Bhander,Madhya Pradesh,25.73581,78.74555
58012,Bhanpura,Madhya Pradesh,24.513,75.7469
58013,Bhanpuri,Chhattisgarh,21.0919,80.93218
58014,Bhanvad,Gujarat,21.93053,69.78081
58015,Bhatapara,Chhattisgarh,21.735,81.94711
58017,Bhayavadar,Gujarat,21.85523,70.24791
58018,Bhikhi,Punjab,30.05918,75.535
58019,Bhilwara,Rajasthan,25.5,74.75
58020,Bhim Tal,,29.34447,79.56336
58021,Bhimavaram,Andhra Pradesh,16.54078,81.52322
58022,Bhimunipatnam,Andhra Pradesh,17.89017,83.45203
58023,Bhinmal,Rajasthan,24.99944,72.27141
58024,Bhoom,Maharashtra,18.45908,75.65877
58025,Biaora,Madhya Pradesh,23.9205,76.91074
58027,Bidhuna,Uttar Pradesh,26.80172,79.50829
58028,Bihpuriagaon,Assam,27.01718,93.91673
58029,Bihar Sharif,Bihar,25.20084,85.52389
58030,Bihariganj,Bihar,25.73415,86.98837
58031,Vijayapura,Karnataka,16.82442,75.71537
58032,Bijapur,Chhattisgarh,18.84322,80.7761
58033,Bijbehara,Jammu and Kashmir,33.79378,75.107
58034,Bijni,Assam,26.49588,90.70298
58035,Bijnor,Uttar Pradesh,29.41667,78.51667
58036,Bijrauni,Madhya Pradesh,24.93296,77.64352
58038,Bijawar,Madhya Pradesh,24.62351,79.48994
58039,Bikramganj,Bihar,25.21073,84.25508
58040,Bilariaganj,Uttar Pradesh,26.19593,83.2269
58041,Bilaspur,Himachal Pradesh,31.33027,76.75663
58042,Bilgi,Karnataka,16.34714,75.61804
58043,Bilgram,Uttar Pradesh,27.17509,80.03201
58044,Bilhaur,Uttar Pradesh,26.84345,80.06388
58045,Bilimora,Gujarat,20.76957,72.96134
58046,Bilkha,Gujarat,21.4415,70.60063
58047,Biloli,Maharashtra,18.77385,77.72463
58048,Bilsanda,Uttar Pradesh,28.24341,79.95135
58049,Bilsi,Uttar Pradesh,28.12941,78.9109
58050,Bilthra,Uttar Pradesh,26.12705,83.89148
58051,Bilara,Rajasthan,26.18067,73.7055
58052,Bilari,Uttar Pradesh,28.62146,78.80361
58053,Bilasipara,Assam,26.23285,90.2341
58054,Bilaspur,Haryana,30.3045,77.30424
58055,Bilaspur,Chhattisgarh,22.38333,82.13333
58057,Bindki,Uttar Pradesh,26.03613,80.57617
58058,Binka,Odisha,21.02626,83.81197
58059,Birbhaddar,,30.0712,78.28189
58060,Birmitrapur,Odisha,22.4,84.76667
58061,Birur,Karnataka,13.59723,75.97167
58062,Bisauli,Uttar Pradesh,28.30772,78.93678
58063,Bisenda Buzurg,Uttar Pradesh,25.4035,80.61889
58064,Bishnupur,Manipur,24.60769,93.77998
58065,Bishnah,Jammu and Kashmir,32.6106,74.85557
58066,Bishunpur Urf Maharajganj,Uttar Pradesh,26.25914,83.11643
58067,Bissau,Rajasthan,28.24737,75.07666
58068,Biswan,Uttar Pradesh,27.49581,80.99618
58069,Bithur,Uttar Pradesh,26.60664,80.27098
58070,Bobbili,Andhra Pradesh,18.57366,83.35925
58071,Bodhan,Telangana,18.66208,77.88581
58072,Bodinayakkanur,Tamil Nadu,10.01171,77.34976
58073,Bodri,Madhya Pradesh,23.16524,81.43262
58074,Boisar,Maharashtra,19.80362,72.75598
58075,Bokajan,Assam,26.02131,93.77945
58076,Bokaro,Jharkhand,23.68562,85.99026
58077,Bokakhat,Assam,26.64018,93.60052
58079,Bolanikhodan,Odisha,22.11312,85.33645
58080,Bomdila,Arunachal Pradesh,27.26475,92.42472
58081,Bongaigaon,Assam,26.4603,90.6464
58083,Borkhera,Rajasthan,25.52115,75.64028
58084,Borsad,Gujarat,22.40788,72.89817
58085,Botad,Gujarat,22.16917,71.66671
58086,Brahmapur,Odisha,19.31151,84.7929
58087,Brajarajnagar,Odisha,21.81667,83.91667
58088,Budaun,Uttar Pradesh,28.11667,78.98333
58089,Bodh Gaya,Bihar,24.69808,84.9869
58090,Budhlada,Punjab,29.92799,75.56205
58091,Budhana,Uttar Pradesh,29.28805,77.47534
58092,Buguda,Odisha,19.80806,84.79084
58093,Bulandshahr,Uttar Pradesh,28.41667,77.83333
58094,Buldana,Maharashtra,20.58333,76.41667
58096,Burhanpur,Madhya Pradesh,21.31,76.23
58097,Burhar,Madhya Pradesh,23.21494,81.53204
58099,Burla,Odisha,21.50976,83.87259
58100,Buxar,Bihar,25.5,84.1
58101,Byndoor,Karnataka,13.86667,74.63333
58102,Byadgi,Karnataka,14.67325,75.4868
58103,Babai,Madhya Pradesh,22.70256,77.93494
58104,Babra,Gujarat,21.84577,71.30544
58105,Badami,Karnataka,15.91495,75.67683
58106,Bagh,Madhya Pradesh,22.35905,74.79052
58107,Bagepalli,Karnataka,13.78338,77.79667
58109,Bagha Purana,Punjab,30.68809,75.09838
58111,Bagli,Madhya Pradesh,22.64124,76.34877
58112,Bah,Uttar Pradesh,26.86912,78.59385
58113,Bajna,Uttar Pradesh,27.89793,77.67836
58114,Baleshwar,Odisha,21.5,86.75
58115,Bali,Rajasthan,25.19725,73.29117
58116,Balotra,Rajasthan,25.83242,72.24
58117,Balugaon,Odisha,20.17838,85.11327
58118,Balachor,Punjab,31.06062,76.30166
58119,Balaghat,Madhya Pradesh,21.96667,80.33333
58120,Balapur,Telangana,17.31018,78.49969
58121,Balapur,Maharashtra,20.66612,76.77386
58122,Bamor Kalan,Madhya Pradesh,24.89298,78.15105
58123,Banapur,Odisha,19.77889,85.17033
58124,Banda,Uttar Pradesh,25.5,80.5
58125,Bandikui,Rajasthan,27.05087,76.57325
58126,Bangarmau,Uttar Pradesh,26.8912,80.21149
58128,Banki,Odisha,20.37912,85.52953
58129,Banposh,Odisha,22.24834,84.81044
58130,Bansdih,Uttar Pradesh,25.88377,84.21827
58131,Bansgaon,Uttar Pradesh,26.55032,83.34503
58132,Bansi,Uttar Pradesh,27.17749,82.93442
58133,Banswada,Telangana,18.37725,77.88007
58134,Banswara,Rajasthan,23.54109,74.4425
58135,Bantva,Gujarat,21.48815,70.07576
58136,Banavar,Karnataka,13.41029,76.16314
58137,Bapatla,Andhra Pradesh,15.90422,80.46743
58138,Bara Banki,Uttar Pradesh,26.93864,81.3274
58139,Baramula,Jammu and Kashmir,34.19287,74.3692
58140,Bardoli,Gujarat,21.12297,73.11151
58141,Barh,Bihar,25.48339,85.70928
58142,Bari,Rajasthan,26.64661,77.61634
58143,Barmer,Rajasthan,25.75,71.5
58144,Barsi,Maharashtra,18.23454,75.69275
58145,Baruni,Bihar,25.47509,85.96813
58146,Baramati,Maharashtra,18.15174,74.57767
58148,Basoda,Madhya Pradesh,23.85153,77.93652
58149,Basudebpur,Odisha,21.11974,86.72896
58150,Basugaon,Assam,26.46742,90.41951
58151,Basar,Arunachal Pradesh,27.99008,94.69451
58152,Bawal,Haryana,28.07184,76.58312
58153,Bazpur,,29.15299,79.10814
58154,Bidar,Karnataka,18.08333,77.33333
58155,Bighapur Khurd,Uttar Pradesh,26.34734,80.65698
58156,Bikaner,Rajasthan,28.01762,73.31495
58158,Bikapur,Uttar Pradesh,26.59534,82.13272
58159,Bilaspur,Uttar Pradesh,28.88655,79.2703
58160,Birpur,Bihar,26.50823,87.01194
58161,Bisalpur,Uttar Pradesh,28.29253,79.80472
58162,Bundi,Rajasthan,25.43855,75.63735
58163,Bundu,Jharkhand,23.16095,85.59007
58164,Buriya,Haryana,30.15911,77.35814
58165,Calangute,Goa,15.5439,73.7553
58166,Canacona,Karnataka,14.9959,74.05056
58167,Candolim,Goa,15.51807,73.76259
58168,Captainganj,Uttar Pradesh,26.9264,83.71334
58169,Carapur,Goa,15.56588,73.98713
58170,Cavelossim,Goa,15.17255,73.94194
58171,Central Delhi,Delhi,28.64857,77.21895
58172,Chail,Uttar Pradesh,25.42654,81.63198
58173,Chakia,Uttar Pradesh,25.04891,83.22155
58174,Chaklasi,Gujarat,22.6532,72.94497
58175,Chakradharpur,Jharkhand,22.67611,85.62892
58176,Chakrata,,30.70369,77.86386
58177,Chaksu,Rajasthan,26.6051,75.94814
58178,Challakere,Karnataka,14.318,76.65165
58179,Challapalle,Andhra Pradesh,16.11756,80.93139
58180,Chalala,Gujarat,21.41073,71.16621
58181,Chamba,Himachal Pradesh,32.57147,76.10229
58182,Chamoli,,30.5,79.5
58183,Champawat,,29.28756,80.03737
58184,Champhai,Mizoram,23.47444,93.32556
58185,Chamrajnagar,Karnataka,11.96,77.09
58186,Chandauli,Uttar Pradesh,25.25803,83.26825
58187,Chandauli District,Uttar Pradesh,25.26134,83.26408
58188,Chanderi,Madhya Pradesh,24.71312,78.13809
58189,Chandia,Madhya Pradesh,23.65647,80.70911
58190,Chandigarh,Chandigarh,30.73629,76.7884
58191,Chandla,Madhya Pradesh,25.07148,80.19294
58192,Chandrapur,Maharashtra,20.11793,79.44377
58193,Chanduasi,Uttar Pradesh,28.45178,78.78277
58194,Chandur,Telangana,17.87455,78.10017
58195,Changanacheri,Kerala,9.44203,76.53604
58196,Changlang,Arunachal Pradesh,27.36265,96.34518
58197,Channagiri,Karnataka,14.02399,75.92577
58198,Channapatna,Karnataka,12.65143,77.20672
58199,Channarayapatna,Karnataka,12.90642,76.38775
58200,Charkhi Dadri,Haryana,28.59166,76.27161
58201,Charkhari,Uttar Pradesh,25.40304,79.74877
131509,Charthawal,Uttar Pradesh,29.54687,77.59438
131510,Chatrapur,Odisha,19.35574,84.98359
131511,Chatra,Jharkhand,24.20645,84.87085
131512,Chaupal,Himachal Pradesh,30.94647,77.5884
131513,Chechat,Rajasthan,24.76667,75.88333
131514,Chemmumiahpet,Andhra Pradesh,15.89794,79.32129
131515,Chengam,Tamil Nadu,12.30889,78.79137
131516,Chengannur,Kerala,9.31575,76.61513
131517,Chennai,Tamil Nadu,13.08784,80.27847
131518,Chennimalai,Tamil Nadu,11.16378,77.60388
131519,Cherpulassery,Kerala,10.87655,76.30932
131520,Cherrapunji,Meghalaya,25.30089,91.69619
131521,Cherthala,Kerala,9.68444,76.33558
131522,Chetput,Tamil Nadu,13.07,80.24083
131523,Chettipalaiyam,Tamil Nadu,10.91248,77.03699
131524,Chetwayi,Kerala,10.52885,76.04793
131525,Cheyyar,Tamil Nadu,12.66052,79.54308
131526,Cheyyur,Tamil Nadu,12.34948,80.00304
131527,Chhabra,Rajasthan,24.66472,76.84379
131528,Chhachhrauli,Haryana,30.24492,77.36027
131529,Chhala,Gujarat,23.30779,72.77404
131530,Chhaprauli,Uttar Pradesh,29.20989,77.17454
131531,Chharra,Uttar Pradesh,27.9247,78.40102
131532,Chhatarpur,Madhya Pradesh,24.75,79.75
131533,Chhibramau,Uttar Pradesh,27.14872,79.50078
131534,Chhindwara,Madhya Pradesh,22.05697,78.93958
131535,Chhota Udepur,Gujarat,22.30401,74.0158
131536,Chhoti Sadri,Rajasthan,24.38145,74.7012
131537,Chhutmalpur,Uttar Pradesh,30.03209,77.75329
131538,Chhuikhadan,Chhattisgarh,21.52316,80.99788
131539,Chhapar,Rajasthan,27.819,74.43936
131540,Chhata,Uttar Pradesh,27.72374,77.5081
131541,Chhatapur,Bihar,26.21965,87.00479
131542,Chicalim,Goa,15.39835,73.84216
131543,Chichli,Madhya Pradesh,22.83363,78.82611
131544,Chicholi,Maharashtra,21.46926,79.70151
131545,Chidambaram,Tamil Nadu,11.39933,79.69144
131546,Chidawa,Rajasthan,28.23937,75.64035
131547,Chik Ballapur,Karnataka,13.43512,77.72787
131548,Chikhli,Gujarat,20.75751,73.06268
131549,Chikhli (Buldhana),Maharashtra,20.35046,76.25774
131550,Chikitigarh,Odisha,19.20233,84.6145
131551,Chikkaballapur,Karnataka,13.55,77.87
131552,Chikkamagaluru,Karnataka,13.49,75.73
131554,Chiknayakanhalli,Karnataka,13.41609,76.62063
131555,Chikodi,Karnataka,16.42898,74.58591
131556,Chilakalurupet,Andhra Pradesh,16.08987,80.16705
131557,Chillupar,Uttar Pradesh,26.28221,83.5064
131558,Chinchani,Maharashtra,19.87458,72.6851
131559,Chinchinim,Goa,15.21447,73.97555
131560,Chincholi,Karnataka,17.46508,77.41874
131561,Chingleput,Tamil Nadu,12.69184,79.97661
131562,Chinna Salem,Tamil Nadu,11.63422,78.87412
131563,Chinnachowk,Andhra Pradesh,14.47516,78.8354
131564,Chinnamanur,Tamil Nadu,9.83999,77.38109
131565,Chinnasekkadu,Tamil Nadu,13.16089,80.25727
131566,Chintamani,Karnataka,13.40051,78.05172
131567,Chiplun,Maharashtra,17.53339,73.50935
131568,Chirang,Assam,26.52527,90.49066
131569,Chirgaon,Uttar Pradesh,25.57198,78.81432
131570,Chiria,Jharkhand,22.31093,85.27601
131571,Chitradurga,Karnataka,14.2,76.5
131572,Chitrakoot,Uttar Pradesh,25.20511,81.08962
131573,Chittarkonda,Odisha,18.12533,82.1089
131574,Chittaurgarh,Rajasthan,24.5,74.5
131575,Chittoor,Andhra Pradesh,13.41667,79.0
131576,Chittur,Kerala,10.69967,76.7471
131577,Chodavaram,Andhra Pradesh,17.82884,82.93526
131578,Cholapuram,Tamil Nadu,9.35193,77.56839
131579,Chopan,Uttar Pradesh,24.51954,83.02287
131580,Chopda,Maharashtra,21.24578,75.29946
131581,Chorhat,Madhya Pradesh,24.42743,81.66948
131582,Chotila,Gujarat,22.42347,71.19641
131583,Chowari,Himachal Pradesh,32.4319,76.012
131584,Chunar,Uttar Pradesh,25.12776,82.8821
131585,Churachandpur,Manipur,24.33333,93.68333
131587,Chuari Khas,Himachal Pradesh,32.43058,76.01428
131588,Chabua,Assam,27.48253,95.17451
131589,Chakan,Maharashtra,18.76059,73.86351
131590,Chakia,Bihar,26.41598,85.04665
131591,Chakulia,Jharkhand,22.48301,86.71793
131592,Chalisgaon,Maharashtra,20.45781,75.01596
131593,Champa,Chhattisgarh,22.03532,82.64234
131594,Champua,Odisha,22.06734,85.66463
131595,Chanasma,Gujarat,23.71472,72.11279
131596,Chanda,Maharashtra,19.95076,79.29523
131597,Chandbali,Odisha,20.77519,86.74139
131598,Chandil,Jharkhand,22.95745,86.05331
131599,Chandor,Maharashtra,20.3306,74.24467
131600,Chandpur,Uttar Pradesh,29.13489,78.27187
131601,Chandur,Maharashtra,19.73444,79.17167
131603,Chandur Bazar,Maharashtra,21.23853,77.74713
131604,Chapar,Assam,26.27266,90.44556
131605,Chapra,Bihar,25.78031,84.74709
131606,Chas,Jharkhand,23.63556,86.16712
131607,Chatakonda,Telangana,17.55303,80.6477
131608,Chaibasa,Jharkhand,22.55038,85.80249
131609,Chelakara,Kerala,10.69289,76.34387
131610,Chima,Punjab,30.6854,76.08643
131611,Chipurupalle,Andhra Pradesh,18.31142,83.56846
131612,Chirala,Andhra Pradesh,15.82385,80.35219
131613,Chitapur,Karnataka,17.12357,77.0824
131614,Churu,Rajasthan,28.30415,74.96718
131615,Clement Town,,30.26361,78.00862
131616,Closepet,Karnataka,12.72181,77.28149
131617,Cochin,Kerala,9.93988,76.26022
131618,Coimbatore,Tamil Nadu,10.8,77.09
131619,Colachel,Tamil Nadu,8.17938,77.25818
131620,Colgong,Bihar,25.26328,87.23264
131621,Colonelganj,Uttar Pradesh,27.13432,81.69868
131622,Colovale,Goa,15.63522,73.82426
131623,Colva,Goa,15.27976,73.92285
131624,Coondapoor,Karnataka,13.63126,74.6902
131625,Cortalim,Goa,15.40247,73.90881
131626,Cuddalore,Tamil Nadu,11.52,79.51
131627,Cuddapah,Andhra Pradesh,14.41667,78.75
131628,Cumbum,Andhra Pradesh,15.58171,79.11059
131629,Cumbum,Tamil Nadu,9.73647,77.2847
131630,Cuncolim,Goa,15.1773,73.99392
131631,Curchorem,Goa,15.26349,74.10875
131632,Curti,Goa,15.41667,74.01667
131633,Cuttack,Odisha,20.5,86.25
131634,Cachar,Assam,24.78213,92.85771
131635,Dabhoi,Gujarat,22.18333,73.43333
131636,Daboh,Madhya Pradesh,26.00239,78.87658
131637,Dabra,Madhya Pradesh,25.88572,78.33221
131638,Dabwali,Haryana,29.94906,74.73832
131639,Dadra,,20.32504,72.96618
131640,Dadra & Nagar Haveli,,20.20651,73.00811
131641,Dagshai,Himachal Pradesh,30.88431,77.05228
131642,Dahegam,Gujarat,23.16903,72.82161
131643,Daitari,Odisha,21.1,85.75
131644,Dakshina Kannada,Karnataka,12.84,75.29
131645,Dalhousie,Himachal Pradesh,32.55219,75.94663
131646,Dalmau,Uttar Pradesh,26.06477,81.0298
131647,Dalsingh Sarai,Bihar,25.66795,85.83636
131648,Daltonganj,Jharkhand,24.03971,84.0658
131649,Daman,,20.41431,72.83236
131651,Damoh,Madhya Pradesh,23.75,79.58333
131652,Dandeli,Karnataka,15.26667,74.61667
131653,Dankaur,Uttar Pradesh,28.35121,77.55508
131654,Darbhanga,Bihar,26.0,86.0
131655,Dariba,Rajasthan,24.94865,74.1342
131656,Darlawn,Mizoram,24.01336,92.92439
131657,Darrang,Assam,26.51195,92.16843
131658,Darsi,Andhra Pradesh,15.76978,79.67939
131659,Daryapur,Maharashtra,20.92489,77.32644
131660,Dasnapur,Telangana,19.65399,78.51213
131661,Dasuya,Punjab,31.81679,75.6531
131662,Datia,Madhya Pradesh,25.75,78.5
131663,Dattapur,Maharashtra,20.78075,78.1407
131664,Daudnagar,Bihar,25.03473,84.40095
131665,Daulatpur,Himachal Pradesh,31.78871,75.99154
131666,Daulatabad,Maharashtra,19.93611,75.22148
131667,Daund,Maharashtra,18.46515,74.58375
131668,Daurala,Uttar Pradesh,29.11344,77.70467
131669,Dausa,Rajasthan,26.88269,76.57053
131670,Davanagere,Karnataka,14.43,75.9
131672,Davorlim,Goa,15.27221,73.99242
131673,Dayapar,Gujarat,23.63371,68.90192
131674,Dayal Bagh,Uttar Pradesh,27.22122,78.01095
131676,Dehradun,,30.33,78.06
131677,Dehri,Bihar,24.90247,84.18217
131678,Dehu,Maharashtra,18.71851,73.76635
131679,Delhi,Delhi,28.65195,77.23149
131680,Delvada,Gujarat,20.77544,71.04646
131681,Denkanikota,Tamil Nadu,12.5301,77.78887
131682,Deoband,Uttar Pradesh,29.69505,77.67964
131683,Deogarh,Odisha,21.53827,84.73337
131684,Deogarh,Jharkhand,24.44382,86.72607
131685,Deoli,Rajasthan,25.75728,75.37991
131686,Deoli,Maharashtra,20.6492,78.48023
131687,Deoli,Delhi,28.50254,77.23117
131688,Deolali,Maharashtra,19.94404,73.83441
131689,Deoranian,Uttar Pradesh,28.62989,79.47648
131690,Deori,Chhattisgarh,21.45,82.61667
131691,Deori Khas,Madhya Pradesh,23.39017,79.0163
131692,Deoria,Uttar Pradesh,26.66667,83.75
131693,Depalpur,Madhya Pradesh,22.85095,75.54224
131694,Dera Gopipur,Himachal Pradesh,31.87919,76.21871
131695,Dergaon,Assam,26.7,93.96667
131696,Dera Baba Nanak,Punjab,32.03733,75.02787
131697,Deshnoke,Rajasthan,27.79836,73.34297
131698,Desur,Tamil Nadu,12.43727,79.48145
131699,Devadanappatti,Tamil Nadu,10.14673,77.6439
131700,Devakottai,Tamil Nadu,9.94704,78.8233
131701,Devanhalli,Karnataka,13.24655,77.71183
131702,Devaprayag,,30.14603,78.60272
131703,Devarkonda,Telangana,16.69186,78.92073
131704,Devbhumi Dwarka,Gujarat,22.20253,69.65498
131705,Devgadh Bariya,Gujarat,22.70517,73.90882
131706,Devgarh,Rajasthan,25.52533,73.90812
131707,Dewas,Madhya Pradesh,23.0,76.16667
131708,Dewa,Uttar Pradesh,27.03621,81.16692
131709,Deulgaon Raja,Maharashtra,20.01757,76.03755
131710,Dhalai,Tripura,23.84307,91.92591
131711,Dhali,Tamil Nadu,10.51049,77.18806
131712,Dhamtari,Chhattisgarh,20.70718,81.54874
131713,Dhanaula,Punjab,30.28216,75.57341
131714,Dhanaura,Uttar Pradesh,28.95912,78.25629
131715,Dhanbad,Jharkhand,23.80199,86.44324
131716,Dhandhuka,Gujarat,22.38185,71.98664
131717,Dhanera,Gujarat,24.50967,72.02343
131718,Dhanwar,Jharkhand,24.41074,85.98183
131719,Dharampur,Gujarat,20.53693,73.17368
131720,Dharampuri,Madhya Pradesh,22.14951,75.34439
131721,Dharamsala,Himachal Pradesh,32.22006,76.32013
131722,Dharangaon,Maharashtra,21.01187,75.27407
131723,Dharapuram,Tamil Nadu,10.73828,77.53223
131724,Dharmadom,Kerala,11.77538,75.46459
131725,Dharmanagar,Tripura,24.36667,92.16667
131726,Dharmapuri,Tamil Nadu,12.1277,78.15794
131727,Dharmavaram,Andhra Pradesh,14.41435,77.72035
131728,Dharmabad,Maharashtra,18.89116,77.8494
131729,Dharwad,Karnataka,15.37,75.14
131730,Dhaulpur,Rajasthan,26.71183,77.73956
131731,Dhaurahra,Uttar Pradesh,27.99814,81.08975
131732,Dhekiajuli,Assam,26.70367,92.47808
131733,Dhemaji,Assam,27.6091,94.7942
131735,Dhenkanal,Odisha,20.75,85.5
131736,Dhilwan,Punjab,31.51432,75.34574
131737,Dhing,Assam,26.46793,92.47336
131738,Dhola,Gujarat,21.88129,71.77269
131739,Dholka,Gujarat,22.72732,72.44128
131740,Dhone,Andhra Pradesh,15.3952,77.8715
131741,Dhoraji,Gujarat,21.73359,70.45004
131742,Dhrol,Gujarat,22.567,70.41769
131743,Dhrangadhra,Gujarat,22.99167,71.46793
131744,Dhubri,Assam,26.06749,90.02238
131746,Dhule,Maharashtra,21.06852,74.58837
131747,Dhuwaran,Gujarat,22.23779,72.7591
131748,Dhaka,Bihar,26.67479,85.16698
131749,Dhamnod,Madhya Pradesh,22.20928,75.47057
131750,Dhampur,Uttar Pradesh,29.30883,78.51083
131751,Dhana,Madhya Pradesh,23.74697,78.86234
131753,Dhar,Madhya Pradesh,22.59373,75.29774
131754,Dharchula,,29.84707,80.51951
131755,Dhari,Gujarat,21.32855,71.02645
131756,Dhariwal,Punjab,31.95616,75.32386
131757,Dharuhera,Haryana,28.20553,76.79691
131758,Dharur,Maharashtra,18.82017,76.10937
131759,Dhulia,Maharashtra,20.9013,74.77737
131760,Dhuri,Punjab,30.36846,75.86791
131761,Dibai,Uttar Pradesh,28.20849,78.26173
131762,Dibrugarh,Assam,27.5,95.0
131763,Dibang Valley,Arunachal Pradesh,28.7,95.7
131764,Dicholi,Goa,15.59319,73.94571
131765,Digapahandi,Odisha,19.37275,84.57184
131766,Digboi,Assam,27.39321,95.61839
131767,Dighwara,Bihar,25.74434,85.01003
131768,Digras,Maharashtra,20.1035,77.71846
131769,Diguvametta,Andhra Pradesh,15.39507,78.8293
131770,Dima Hasao District,Assam,25.5,93.0
131771,Dimapur,Nagaland,25.77852,93.78508
131773,Dinapore,Bihar,25.63705,85.04794
131774,Dindigul,Tamil Nadu,10.4,77.8
131775,Dindori,Madhya Pradesh,22.8,81.1
131776,Diphu,Assam,25.84341,93.43116
131777,Dirba,Punjab,30.07222,75.99607
131778,Dispur,Assam,26.13564,91.80069
131779,Diu,,20.72081,70.93989
131780,Dod Ballapur,Karnataka,13.29452,77.53777
131781,Doda,Jammu and Kashmir,33.14916,75.54746
131782,Dohad,Gujarat,22.9,74.0
131783,Dohrighat,Uttar Pradesh,26.27217,83.50916
131784,Doiwala,,30.17667,78.11659
131785,Dombivli,Maharashtra,19.21667,73.08333
131786,Dondaicha,Maharashtra,21.3236,74.56804
131787,Dongargaon,Chhattisgarh,20.97172,80.85077
131788,Dongargarh,Chhattisgarh,21.18893,80.75459
131789,Dornakal,Telangana,17.44475,80.14905
131790,Doraha,Punjab,30.79953,76.02355
131791,Dostpur,Uttar Pradesh,26.27486,82.47091
131792,Dudhani,Maharashtra,17.35792,76.36688
131793,Dugadda,,29.80673,78.61109
131794,Dugda,Jharkhand,23.74516,86.17175
131795,Duliagaon,Assam,27.37227,95.30754
131796,Dum Duma,Assam,27.56884,95.55664
131797,Dumka,Jharkhand,24.3,87.25
131798,Dumra,Bihar,26.56708,85.5204
131799,Dumraon,Bihar,25.55265,84.15149
131800,Dungarpur,Gujarat,21.28777,71.7556
131801,Durg,Chhattisgarh,21.15,81.4
131802,Durgapur,Maharashtra,20.0054,79.30273
131803,Dwarka,Gujarat,22.23944,68.96778
131804,Dwarahat,,29.77785,79.42731
131805,Dabhol,Maharashtra,17.58971,73.18001
131806,Dadri,Uttar Pradesh,28.55257,77.55403
131807,Dahanu,Maharashtra,19.96778,72.71263
131808,Dakor,Gujarat,22.75268,73.14967
131809,Damnagar,Gujarat,21.69232,71.51747
131810,Darwha,Maharashtra,20.31017,77.77257
131811,Dasna,Uttar Pradesh,28.67736,77.52252
131812,Dataganj,Uttar Pradesh,28.0253,79.40819
131813,Didwana,Rajasthan,27.40096,74.57537
131814,Dig,Rajasthan,27.47188,77.32564
131815,Diglur,Maharashtra,18.54829,77.57695
131816,Dina Nagar,Punjab,32.13664,75.47291
131817,Disa,Gujarat,24.25612,72.17928
131818,Dudhi,Uttar Pradesh,24.21357,83.24067
131819,Dungarpur,Rajasthan,23.84306,73.71466
131820,Dusi,Tamil Nadu,12.77574,79.67892
131821,East Delhi,Delhi,28.66242,77.29122
131822,East District,Sikkim,27.33333,88.66667
131823,East Godavari,Andhra Pradesh,17.83333,81.83333
131824,East Garo Hills,Meghalaya,25.61372,90.62426
131825,East Jaintia Hills,Meghalaya,25.35976,92.3668
131826,East Kameng,Arunachal Pradesh,27.3,93.05
131827,East Khasi Hills,Meghalaya,25.3805,91.78905
131828,East Siang,Arunachal Pradesh,28.12379,95.16339
131829,Edakkulam,Kerala,10.6102,76.18352
131830,Elamanchili,Andhra Pradesh,17.54907,82.85749
131831,Ellenabad,Haryana,29.45282,74.66122
131832,Ellore,Andhra Pradesh,16.71311,81.10437
131833,Elumalai,Tamil Nadu,9.86501,77.69923
131834,Elayirampannai,Tamil Nadu,9.27033,77.82494
131835,Elur,Kerala,10.06667,76.28333
131836,Emmiganur,Andhra Pradesh,15.77203,77.48345
131837,Eral,Tamil Nadu,8.62584,78.02282
131838,Erandol,Maharashtra,20.92206,75.32641
131839,Eraniel,Tamil Nadu,8.20589,77.31726
131840,Ernakulam,Kerala,10.0,76.5
131841,Erode,Tamil Nadu,11.34,77.55
131842,Erraguntla,Andhra Pradesh,14.63853,78.53974
131843,Erumaippatti,Tamil Nadu,11.14671,78.28996
131844,Erattupetta,Kerala,9.68747,76.77891
131845,Etah,Uttar Pradesh,27.5,78.75
131846,Etikoppaka,Andhra Pradesh,17.5,82.73333
131847,Ettaiyapuram,Tamil Nadu,9.14405,77.99066
131848,Etawa,Madhya Pradesh,24.18351,78.20289
131849,Etawah,Uttar Pradesh,26.75,79.25
131850,Faizpur,Maharashtra,21.16766,75.86006
131851,Faizabad,Uttar Pradesh,26.75,82.0
131852,Farah,Uttar Pradesh,27.32081,77.76185
131853,Faridabad,Haryana,28.41124,77.31316
131856,Farrukhnagar,Haryana,28.44745,76.82391
131857,Farrukhnagar,Telangana,17.07787,78.20339
131858,Farrukhabad,Uttar Pradesh,27.5,79.5
131859,Faridkot,Punjab,30.67399,74.75579
131860,Faridnagar,Uttar Pradesh,28.76923,77.62934
131861,Faridpur,Uttar Pradesh,28.20997,79.54149
131863,Fatehganj West,Uttar Pradesh,28.4662,79.30657
131864,Fatehgarh,Uttar Pradesh,27.36409,79.63111
131865,Fatehgarh Churian,Punjab,31.86431,74.95665
131866,Fatehgarh Sahib,Punjab,30.64379,76.34787
131867,Fatehpur,Rajasthan,27.99486,74.95628
131868,Fatehpur,Uttar Pradesh,25.75,80.75
131869,Fatehpur Chaurasi,Uttar Pradesh,26.78925,80.26547
131870,Fatehpur Sikri,Uttar Pradesh,27.0937,77.66003
131871,Fatehabad,Uttar Pradesh,27.02645,78.3027
131872,Fatehabad,Haryana,29.51525,75.45554
131873,Fatwa,Bihar,25.50958,85.30504
131874,Ferokh,Kerala,11.17989,75.84141
131875,Firozpur,Punjab,30.92574,74.61311
131876,Firozabad,Uttar Pradesh,27.20072,78.42867
131877,Firozpur District,Punjab,30.89,74.56
131878,Forbesganj,Bihar,26.30253,87.26556
131879,French Rocks,Karnataka,12.50094,76.67416
131880,Fyzabad,Uttar Pradesh,26.77549,82.15018
131881,Fazilka,Punjab,30.40207,74.02836
131882,Firozpur Jhirka,Haryana,27.78853,76.94496
131884,Gadag,Karnataka,15.49835,75.65187
131885,Gadag-Betageri,Karnataka,15.4167,75.6167
131886,Gadchiroli,Maharashtra,19.8,80.2
131887,Gaddi Annaram,Telangana,17.36687,78.5242
131888,Gadhada,Gujarat,21.96957,71.57828
131889,Gadhinglaj,Maharashtra,16.22291,74.3501
131890,Gadwal,Telangana,16.23504,77.79556
131891,Gagret,Himachal Pradesh,31.65846,76.06144
131892,Gajapati,Odisha,18.91,84.2
131893,Gajendragarh,Karnataka,15.73628,75.96976
131894,Gajraula,Uttar Pradesh,28.8457,78.2396
131895,Gajuwaka,Andhra Pradesh,17.7,83.21667
131896,Galiakot,Rajasthan,23.51995,74.02028
131897,Gandai,Chhattisgarh,21.66667,81.10013
131898,Ganderbal,Jammu and Kashmir,34.29467,75.19996
131899,Gandevi,Gujarat,20.81214,72.99811
131900,Gandhinagar,Gujarat,23.21667,72.68333
131901,Gangaikondan,Tamil Nadu,8.85785,77.78019
131902,Gangavalli,Tamil Nadu,11.49828,78.64966
131903,Gangoh,Uttar Pradesh,29.78004,77.26346
131904,Gangolli,Karnataka,13.65024,74.67072
131905,Gangtok,Sikkim,27.32574,88.61216
131906,Ganguvada,Andhra Pradesh,18.66667,84.11667
131907,Gangakher,Maharashtra,18.96962,76.74946
131908,Ganganagar,Rajasthan,29.92009,73.87496
131909,Gangapur,Rajasthan,26.47249,76.71744
131910,Gangapur,Maharashtra,19.69718,75.01045
131911,Gangawati,Karnataka,15.4313,76.52933
131912,Ganj Dundwara,Uttar Pradesh,27.73308,78.94119
131913,Ganj Muradabad,Uttar Pradesh,26.95733,80.184
131914,Ganjam,Odisha,19.38705,85.05079
131915,Gannavaram,Andhra Pradesh,16.54092,80.80213
131916,Garautha,Uttar Pradesh,25.5719,79.29764
131917,Garha Brahman,Madhya Pradesh,23.86873,77.35731
131918,Gardhiwala,Punjab,31.74147,75.75567
131919,Garhi Pukhta,Uttar Pradesh,29.5498,77.30881
131920,Garhmuktesar,Uttar Pradesh,28.78732,78.10214
131921,Garhshankar,Punjab,31.21537,76.14149
131922,Garhwa,Jharkhand,24.07494,83.71023
131923,Garhwal,,29.96366,78.92853
131924,Garhakota,Madhya Pradesh,23.7791,79.14321
131925,Gariadhar,Gujarat,21.53889,71.57737
131926,Gariaband,Chhattisgarh,20.63323,82.06221
131927,Gaurela,Chhattisgarh,22.75449,81.90107
131928,Gauripur,Assam,26.08334,89.96118
131929,Gautam Buddha Nagar,Uttar Pradesh,28.35898,77.55076
131930,Gautampura,Madhya Pradesh,22.98664,75.51921
131931,Gawan,Uttar Pradesh,28.41969,78.35186
131932,Gaya,Bihar,24.79686,85.00385
131934,Gevrai,Maharashtra,19.26372,75.75007
131935,Ghanaur,Punjab,30.33092,76.61203
131936,Ghansor,Madhya Pradesh,22.65976,79.95013
131937,Gharaunda,Haryana,29.53692,76.97142
131938,Gharghoda,Chhattisgarh,22.17427,83.3517
131939,Ghatkesar,Telangana,17.45081,78.68366
131940,Ghazipur,Uttar Pradesh,25.58333,83.58526
131941,Ghiror,Uttar Pradesh,27.18912,78.79312
131942,Gho Brahmanan de,Jammu and Kashmir,32.5559,74.9539
131943,Ghoga,Bihar,25.21738,87.1571
131944,Ghogha,Gujarat,21.68813,72.2763
131945,Ghorawal,Uttar Pradesh,24.75459,82.77965
131946,Ghosi,Uttar Pradesh,26.10587,83.5393
131947,Ghoti Budrukh,Maharashtra,19.71641,73.62821
131948,Ghugus,Maharashtra,19.9381,79.11192
131949,Ghumarwin,Himachal Pradesh,31.44166,76.71509
131950,Ghatampur,Uttar Pradesh,26.15272,80.16803
131951,Ghatanji,Maharashtra,20.14183,78.31333
131952,Ghatsila,Jharkhand,22.58531,86.47682
131953,Ghaziabad,Uttar Pradesh,28.66535,77.43915
131955,Giddalur,Andhra Pradesh,15.37439,78.92609
131956,Giddarbaha,Punjab,30.19953,74.66627
131957,Gingee,Tamil Nadu,12.25282,79.41727
131958,Gir Somnath,Gujarat,20.91287,70.3671
131959,Giridih,Jharkhand,24.25,85.91667
131960,Goa Velha,Goa,15.44384,73.88572
131961,Gobichettipalayam,Tamil Nadu,11.45496,77.4422
131962,Gobindpur,Jharkhand,22.63393,86.07162
131963,Godda,Jharkhand,24.83333,87.21667
131964,Godhra,Gujarat,22.77547,73.61488
131965,Gogapur,Madhya Pradesh,23.55746,75.51665
131966,Gohadi,Madhya Pradesh,26.43278,78.44205
131967,Gohpur,Assam,26.88184,93.6156
131968,Gohana,Haryana,29.13777,76.70247
131969,Gohand,Uttar Pradesh,25.69871,79.54567
131970,Gokak,Karnataka,16.16901,74.82393
131971,Gokarna,Karnataka,14.55,74.31667
131972,Gokavaram,Andhra Pradesh,17.25823,81.84985
131973,Gokul,Uttar Pradesh,27.43926,77.72019
131974,Gola Bazar,Uttar Pradesh,26.3446,83.35303
131975,Gola Gokarannath,Uttar Pradesh,28.07837,80.47054
131976,Golaghat,Assam,26.4092,93.91193
131977,Golakganj,Assam,26.10216,89.82275
131979,Gomati,Tripura,23.53399,91.48122
131980,Gomoh,Jharkhand,23.87355,86.1516
131981,Gonda,Uttar Pradesh,27.18581,81.96693
131982,Gondal,Gujarat,21.96074,70.80255
131986,Gopinathpur,Jharkhand,22.66301,86.075
131987,Gopalganj,Bihar,26.5,84.33333
131988,Gopalpur,Odisha,19.25861,84.90517
131989,Gopalur,Telangana,16.6122,77.80728
131990,Gopamau,Uttar Pradesh,27.53468,80.28507
131991,Gorakhpur,Haryana,29.44768,75.67206
131992,Gorakhpur,Uttar Pradesh,26.91667,83.25
131993,Gorantla,Andhra Pradesh,13.98411,77.77224
131994,Goregaon,Maharashtra,18.15483,73.29147
131995,Goribidnur,Karnataka,13.61072,77.51738
131996,Gorur,Karnataka,12.82297,76.06463
131997,Goshaingaon,Assam,26.43946,89.96307
131998,Goshainganj,Uttar Pradesh,26.57115,82.38091
132000,Govardhan,Uttar Pradesh,27.49658,77.46263
132001,GovindapuramChilakaluripetGuntur,Andhra Pradesh,16.15477,80.10279
132002,Govindgarh,Madhya Pradesh,24.37845,81.29644
132003,Govindgarh,Rajasthan,27.50423,76.99938
132004,Goalpara,Assam,26.12791,90.60974
132005,Greater Noida,Uttar Pradesh,28.49615,77.53601
132006,Gua,Jharkhand,22.21361,85.38774
132007,Gubbi,Karnataka,13.31216,76.94102
132008,Gudalur,Tamil Nadu,9.67826,77.24951
132009,Gudibanda,Karnataka,13.67099,77.70414
132010,Gudivada,Andhra Pradesh,16.43547,80.99555
132011,Gudiyatham,Tamil Nadu,12.94601,78.87377
132012,Gudlavalleru,Andhra Pradesh,16.35,81.05
132013,Gudari,Odisha,19.34762,83.78128
132014,Guhagar,Maharashtra,17.48415,73.19289
132015,Guirim,Goa,15.57552,73.80722
132016,Kalaburgi,Karnataka,17.16667,77.08333
132017,Guledagudda,Karnataka,16.05025,75.78997
132018,Gulabpura,Rajasthan,25.90448,74.66025
132019,Gulaothi,Uttar Pradesh,28.58938,77.79318
132020,Gumia,Jharkhand,23.7975,85.82523
132021,Gumla,Jharkhand,23.08055,84.53834
132023,Gummidipundi,Tamil Nadu,13.40765,80.10879
132024,Guna,Madhya Pradesh,24.55464,77.20082
132025,Gundlupet,Karnataka,11.81004,76.69027
132026,Gunnaur,Uttar Pradesh,28.23995,78.43994
132027,Guntakal Junction,Andhra Pradesh,15.17112,77.36244
132028,Guntur,Andhra Pradesh,16.29974,80.45729
132030,Gunupur,Odisha,19.0804,83.80879
132031,Gurdaspur,Punjab,31.92,75.27
132032,Gurgaon,Haryana,28.43891,77.00592
132033,Gurh,Madhya Pradesh,24.50265,81.50037
132034,Gurmatkal,Karnataka,16.86773,77.39088
132035,Gursahaiganj,Uttar Pradesh,27.11518,79.73174
132036,Gursarai,Uttar Pradesh,25.61677,79.18053
132037,Guru Har Sahai,Punjab,30.70862,74.40407
132038,Guruvayur,Kerala,10.5943,76.0411
132039,Guwahati,Assam,26.1844,91.7458
132040,Gwalior,Madhya Pradesh,26.22983,78.17337
132041,Gyalshing,Sikkim,27.28952,88.25764
132042,Gyanpur,Uttar Pradesh,25.33268,82.46637
132043,Gadarwara,Madhya Pradesh,22.9235,78.7849
132045,Gandhi Nagar,Tamil Nadu,13.00639,80.25417
132046,Gandhidham,Gujarat,23.08333,70.13333
132048,Gidam,Chhattisgarh,18.97431,81.39894
132050,Guduvancheri,Tamil Nadu,12.84519,80.06055
132051,Gudur,Andhra Pradesh,14.15093,79.8521
132052,Gudur,Telangana,17.49174,78.82302
132053,Hadagalli,Karnataka,15.02048,75.93185
132054,Hadgaon,Maharashtra,19.49552,77.65863
132055,Hailakandi,Assam,24.5017,92.60069
132057,Haldaur,Uttar Pradesh,29.28988,78.28437
132058,Haldwani,,29.22254,79.5286
132059,Haliyal,Karnataka,15.32864,74.75638
132060,Halvad,Gujarat,23.01516,71.18029
132061,Hampi,Karnataka,15.3352,76.4603
132062,Hamirpur,Uttar Pradesh,25.75,80.0
132063,Hamirpur,Himachal Pradesh,31.75,76.5
132064,Handia,Uttar Pradesh,25.36379,82.18655
132065,Hansot,Gujarat,21.58496,72.80764
132066,Hanumangarh,Rajasthan,29.11,74.6
132068,Haraiya,Uttar Pradesh,26.79477,82.46436
132069,Harbatpur,,30.43863,77.74058
132070,Harda,Madhya Pradesh,22.23406,76.96431
132071,Harda Khas,Madhya Pradesh,22.34414,77.09536
132072,Hardoi,Uttar Pradesh,27.41667,80.25
132074,Harduaganj,Uttar Pradesh,27.94361,78.15789
132075,Haridwar,,29.94791,78.16025
132076,Harihar,Karnataka,14.51288,75.80716
132077,Hariana,Punjab,31.63512,75.83887
132078,Harnai,Maharashtra,17.8134,73.09668
132079,Harpanahalli,Karnataka,14.78766,75.98863
132080,Harpalpur,Madhya Pradesh,25.28773,79.33279
132081,Harrai,Madhya Pradesh,22.61428,79.22207
132082,Harsud,Madhya Pradesh,22.09947,76.73423
132083,Harur,Tamil Nadu,12.05267,78.48023
132084,Hasanpur,Haryana,27.96944,77.49544
132085,Hasanpur,Uttar Pradesh,28.72249,78.28436
132086,Hassan,Karnataka,12.95,76.08333
132087,Hastinapur,Uttar Pradesh,29.16042,78.00762
132088,Hatta,Madhya Pradesh,24.13406,79.60119
132089,Haveri,Karnataka,14.73732,75.41062
132090,Hayuliang,Arunachal Pradesh,28.07301,96.54305
132091,Hazaribagh,Jharkhand,23.99241,85.36162
132092,Hazaribag,Jharkhand,24.0,85.25
132093,Heggadadevankote,Karnataka,12.08809,76.32957
132094,Hesla,Jharkhand,24.06313,85.87905
132095,Hilsa,Bihar,25.31642,85.28234
132096,Himatnagar,Gujarat,23.59893,72.96602
132097,Hindaun,Rajasthan,26.73411,77.03519
132098,Hindoria,Madhya Pradesh,23.90345,79.56861
132099,Hindupur,Andhra Pradesh,13.82807,77.49143
132100,Hinganghat,Maharashtra,20.54875,78.83978
132101,Hingoli,Maharashtra,19.7,77.15
132102,Hinjilikatu,Odisha,19.48166,84.74489
132103,Hirekerur,Karnataka,14.45506,75.3952
132104,Hiriyur,Karnataka,13.94455,76.61723
132105,Hiranagar,Jammu and Kashmir,32.45493,75.27187
132106,Hisar,Haryana,29.15394,75.72294
132107,Hisua,Bihar,24.8336,85.41729
132109,Hodal,Haryana,27.89196,77.36744
132110,Hojai,Assam,26.00281,92.85605
132111,Holalkere,Karnataka,14.04295,76.18496
132112,Hole Narsipur,Karnataka,12.78635,76.24331
132113,Homnabad,Karnataka,17.77074,77.12519
132114,Honnali,Karnataka,14.23976,75.64507
132115,Honavar,Karnataka,14.28088,74.44497
132117,Hosanagara,Karnataka,13.91387,75.06503
132118,Hosangadi,Karnataka,13.69756,74.95427
132119,Hosdurga,Karnataka,13.79631,76.28408
132120,Hoshangabad,Madhya Pradesh,22.58827,77.98887
132122,Hoshiarpur,Punjab,31.53723,75.91269
132123,Hoskote,Karnataka,13.0707,77.79814
132124,Hospet,Karnataka,15.26954,76.3871
132125,Hosur,Tamil Nadu,12.73647,77.83264
132126,Howli,Assam,26.42237,90.98004
132127,Hubballi,Karnataka,15.34776,75.13378
132128,Hukeri,Karnataka,16.23082,74.60244
132129,Hungund,Karnataka,16.06213,76.0586
132130,Hunsur,Karnataka,12.30359,76.29275
132131,Husainabad,Jharkhand,24.52849,84.0
132132,Hyderabad,Telangana,17.38405,78.45636
132134,Haflong,Assam,25.16478,93.01744
132135,Hajan,Jammu and Kashmir,34.29895,74.61681
132136,Hajipur,Punjab,31.97714,75.75438
132137,Hajo,Assam,26.2452,91.52525
132138,Hajipur,Bihar,25.68544,85.20981
132139,Halol,Gujarat,22.50321,73.47242
132140,Hangal,Karnataka,14.76465,75.1246
132141,Hansi,Haryana,29.10239,75.96253
132142,Hapur,Uttar Pradesh,28.72985,77.78068
132143,Harij,Gujarat,23.69356,71.907
132144,Hathras,Uttar Pradesh,27.59551,78.05201
132145,Hatod,Madhya Pradesh,22.79378,75.73928
132146,Hata,Uttar Pradesh,26.7412,83.74526
132148,Hirakud,Odisha,21.52502,83.87275
132149,Hirapur Hamesha,Maharashtra,21.55546,79.78581
132150,Ichalkaranji,Maharashtra,16.69117,74.46054
132151,Ichchapuram,Andhra Pradesh,19.11393,84.68721
132152,Ichhawar,Madhya Pradesh,23.02816,77.01729
132153,Idappadi,Tamil Nadu,11.58624,77.83891
132154,Idukki,Kerala,10.0,77.0
132155,Igatpuri,Maharashtra,19.69522,73.5626
132156,Iglas,Uttar Pradesh,27.711,77.93967
132157,Ikauna,Uttar Pradesh,27.53097,81.96917
132158,Iklehra,Madhya Pradesh,23.14667,76.39044
132159,Ilampillai,Tamil Nadu,11.60659,78.00676
132160,Ilkal,Karnataka,15.95923,76.11351
132161,Iluppur,Tamil Nadu,10.51347,78.62357
132162,Imphal East,Manipur,24.7911,93.9348
132163,Inda Chhoi,Haryana,29.64042,75.79041
132164,Indergarh,Uttar Pradesh,26.93521,79.6712
132165,Indi,Karnataka,17.17735,75.9526
132166,Indore,Madhya Pradesh,22.66667,75.75
132167,Indri,Haryana,29.87999,77.05972
132168,Indapur,Maharashtra,18.3,73.25
132169,Injambakkam,Tamil Nadu,12.9162,80.2488
132170,Iringal,Kerala,11.55929,75.61663
132171,Irinjalakuda,Kerala,10.34238,76.21124
132172,Irugur,Tamil Nadu,11.01782,77.06285
132173,Islamnagar,Uttar Pradesh,28.32896,78.72524
132174,Islampur,Bihar,25.14075,85.20587
132175,Isagarh,Madhya Pradesh,24.83906,77.88274
132176,Itaunja,Uttar Pradesh,27.08347,80.89672
132177,Itimadpur,Uttar Pradesh,27.23541,78.19829
132178,Itanagar,Arunachal Pradesh,27.08694,93.60987
132179,Itarsi,Madhya Pradesh,22.61477,77.76222
132180,Iawar,Madhya Pradesh,23.00943,76.5007
132181,Jabalpur,Madhya Pradesh,23.16,79.95
132182,Jagalur,Karnataka,14.51957,76.33915
132183,Jagannathpur,Jharkhand,22.22115,85.63917
132185,Jagatsinghpur,Odisha,20.2,86.3
132186,Jagdalpur,Chhattisgarh,19.08136,82.02131
132187,Jagdishpur,Uttar Pradesh,26.74967,80.5451
132188,Jagdispur,Bihar,25.46811,84.41939
132189,Jaggayyapeta,Andhra Pradesh,16.8938,80.09807
132191,Jagnair,Uttar Pradesh,26.8636,77.60231
132192,Jagraon,Punjab,30.78783,75.47391
132193,Jagtial,Telangana,18.79473,78.91661
132194,Jagadhri,Haryana,30.16719,77.30367
132195,Jahangirpur,Uttar Pradesh,28.17919,77.70501
132196,Jahangirabad,Uttar Pradesh,28.40549,78.10588
132197,Jahanabad,Uttar Pradesh,28.63025,79.71818
132198,Jahanabad,Bihar,25.21368,84.9871
132199,Jahazpur,Rajasthan,25.61994,75.27609
132200,Jainpur,Uttar Pradesh,26.15389,83.33505
132201,Jaipur,Rajasthan,27.0,76.0
132202,Jais,Uttar Pradesh,26.2649,81.54855
132203,Jaisalmer,Rajasthan,26.99382,71.00889
132204,Jaisinghnagar,Madhya Pradesh,23.68582,81.39085
132205,Jaisingpur,Maharashtra,16.77639,74.55361
132206,Jaithari,Madhya Pradesh,23.20856,78.61487
132207,Jaito,Punjab,30.45126,74.89189
132208,Jaitaran,Rajasthan,26.20446,73.93676
132209,Jajpur,Odisha,20.84149,86.31237
132210,Jalakandapuram,Tamil Nadu,11.69779,77.87298
132211,Jalandhar,Punjab,31.41667,75.61667
132212,Jalesar,Uttar Pradesh,27.47315,78.3031
132213,Jaleshwar,Odisha,21.80176,87.2225
132214,Jalgaon,Maharashtra,21.00292,75.56602
132215,Jalgaon Jamod,Maharashtra,21.05194,76.53464
132216,Jalna,Maharashtra,19.8,75.9
132217,Jalor,Rajasthan,25.34558,72.61559
132218,Jalore,Rajasthan,25.08,72.29
132219,Jalalpur,Gujarat,20.94896,72.89829
132220,Jalalpur,Uttar Pradesh,26.31162,82.73859
132221,Jalalabad,Uttar Pradesh,29.61853,77.43908
132223,Jalalabad,Punjab,30.60622,74.25727
132224,Jalali,Uttar Pradesh,27.8668,78.25267
132225,Jalarpet,Tamil Nadu,12.57025,78.57318
132226,Jambusar,Gujarat,22.05236,72.80074
132227,Jamkhandi,Karnataka,16.50461,75.29146
132228,Jammalamadugu,Andhra Pradesh,14.84677,78.38314
132229,Jammu,Jammu and Kashmir,32.75,74.83333
132230,Jamnagar,Gujarat,22.47292,70.06673
132231,Jamshedpur,Jharkhand,22.80278,86.18545
132232,Jamtara,Jharkhand,24.0,86.85
132233,Jamui,Bihar,24.92082,86.17538
132234,Jamalpur,Bihar,25.31258,86.48888
132236,Jandiala,Punjab,31.1593,75.61755
132237,Jandiala Guru,Punjab,31.56198,75.0277
132238,Jangaon,Telangana,17.72602,79.15236
132240,Janjgir-Champa,Chhattisgarh,21.9,82.7
132241,Jaora,Madhya Pradesh,23.63783,75.12711
132242,Jarwal,Uttar Pradesh,27.1629,81.54179
132243,Jasdan,Gujarat,22.03709,71.20794
132244,Jashpur,Chhattisgarh,22.78495,83.84573
132245,Jashpurnagar,Chhattisgarh,22.88783,84.13864
132246,Jasidih,Jharkhand,24.51379,86.64576
132247,Jaspur,,29.27919,78.82798
132248,Jasrana,Uttar Pradesh,27.23587,78.65244
132249,Jaswantnagar,Uttar Pradesh,26.88271,78.90256
132250,Jatani,Odisha,20.15975,85.70742
132251,Jatara,Madhya Pradesh,25.00964,79.04869
132252,Jaunpur,Uttar Pradesh,25.75,82.75
132253,Jaurian,Jammu and Kashmir,32.83255,74.57612
132254,Jawhar,Maharashtra,19.91213,73.22679
132255,Jawala Mukhi,Himachal Pradesh,31.87456,76.32013
132256,Jayamkondacholapuram,Tamil Nadu,11.21266,79.36369
132257,Jayashankar Bhupalapally,Telangana,18.19678,79.93976
132258,Jaynagar,Bihar,26.59048,86.13791
132259,Jehanabad,Bihar,25.20701,84.99573
132260,Jejuri,Maharashtra,18.27658,74.16008
132261,Jetalsar,Gujarat,21.70891,70.57695
132262,Jetpur,Gujarat,21.75482,70.62347
132263,Jevargi,Karnataka,17.01394,76.77317
132264,Jewar,Uttar Pradesh,28.122,77.55734
132265,Jeypore,Odisha,18.8563,82.5716
132266,Jhajjar,Haryana,28.6063,76.6565
132267,Jhanjharpur,Bihar,26.26467,86.27993
132268,Jharia,Jharkhand,23.74079,86.41456
132269,Jharsuguda,Odisha,21.85531,84.00698
132270,Jharsuguda District,Odisha,21.85,84.0
132271,Jhinjhana,Uttar Pradesh,29.52118,77.2247
132272,Jhulasan,Gujarat,23.3286,72.47314
132273,Jhunjhunun,Rajasthan,28.12559,75.39797
132274,Jha-Jha,Bihar,24.77107,86.37888
132275,Jhabua,Madhya Pradesh,22.76772,74.59087
132276,Jhalrapatan,Rajasthan,24.54205,76.17242
132277,Jhalu,Uttar Pradesh,29.33609,78.22608
132278,Jhalawar,Rajasthan,24.59633,76.16499
132279,Jhansi,Uttar Pradesh,25.5,78.5
132280,Jhinjhak,Uttar Pradesh,26.56093,79.73423
132281,Jhusi,Uttar Pradesh,25.43745,81.9055
132282,Jintur,Maharashtra,19.61186,76.6874
132283,Jobat,Madhya Pradesh,22.41599,74.56828
132284,Jobner,Rajasthan,26.97257,75.38752
132285,Jodhpur,Gujarat,21.90174,70.0327
132286,Jodhpur,Rajasthan,26.75,72.75
132287,Jodiya Bandar,Gujarat,22.71667,70.28333
132288,Jogbani,Bihar,26.39905,87.26525
132289,Jogindarnagar,Himachal Pradesh,31.98727,76.78906
132290,Jogulamba Gadwal,Telangana,16.23401,77.80564
132291,Jogighopa,Assam,26.22646,90.57247
132293,Jorethang,Sikkim,27.10696,88.32332
132294,Jorhat,Assam,26.8,94.26
132296,Joshimath,,30.55543,79.56436
132297,Jua,Goa,15.5307,73.95047
132298,Jubbal,Himachal Pradesh,31.10923,77.65085
132299,Jugsalai,Jharkhand,22.77668,86.18351
132300,Jumri Tilaiya,Jharkhand,24.4349,85.52951
132301,Junnar,Maharashtra,19.20815,73.8752
132302,Jutogh,Himachal Pradesh,31.1,77.11667
132303,Jyotiba Phule Nagar,Uttar Pradesh,28.7716,78.33871
132305,Jakhal,Haryana,29.79627,75.82392
132306,Jalaun,Uttar Pradesh,26.0,79.5
132308,Jamadoba,Jharkhand,23.71667,86.4
132309,Jamai,Madhya Pradesh,22.19644,78.59191
132312,Janjgir,Chhattisgarh,22.00922,82.5778
132313,Jansath,Uttar Pradesh,29.32502,77.85044
132314,Jawad,Madhya Pradesh,24.59916,74.86261
132315,Jind,Haryana,29.31577,76.31502
132316,Jiran,Madhya Pradesh,24.30871,74.89087
132317,Junagadh,Gujarat,21.25,70.33333
132318,Junagarh,Chhattisgarh,19.85993,82.93385
132319,Kabeerdham,Chhattisgarh,22.1,81.2
132320,Kabrai,Uttar Pradesh,25.40281,79.9997
132321,Kachchh,Gujarat,23.58333,70.0
132322,Kachhwa,Uttar Pradesh,25.20615,82.71442
132323,Kadakkavoor,Kerala,8.67921,76.76714
132324,Kadambur,Tamil Nadu,8.99739,77.86191
132325,Kadaura,Uttar Pradesh,25.98537,79.83842
132326,Kadayanallur,Tamil Nadu,9.07277,77.34152
132327,Kadi,Gujarat,23.29908,72.33362
132328,Kadiri,Andhra Pradesh,14.11168,78.15982
132329,Kadod,Gujarat,21.21717,73.21972
132330,Kadur,Karnataka,13.55285,76.01164
132331,Kagaznagar,Telangana,19.33159,79.46605
132332,Kaikalur,Andhra Pradesh,16.55154,81.214
132333,Kailaras,Madhya Pradesh,26.30498,77.616
132334,Kailashahar,Tripura,24.33199,92.00391
132335,Kaimganj,Uttar Pradesh,27.55441,79.33525
132336,Kaimori,Madhya Pradesh,23.38465,79.7442
132337,Kaimur District,Bihar,25.05077,83.58261
132338,Kaintragarh,Odisha,20.72115,84.53514
132339,Kairana,Uttar Pradesh,29.39541,77.2054
132340,Kaithal,Haryana,29.80153,76.39959
132341,Kakching,Manipur,24.4982,93.98126
132342,Kakrala,Uttar Pradesh,27.89269,79.1945
132343,Kalakkadu,Tamil Nadu,8.5138,77.54944
132344,Kalamassery,Kerala,10.0614,76.32631
132345,Kalamb,Maharashtra,19.04437,73.95554
132346,Kalamnuri,Maharashtra,19.67386,77.31149
132347,Kalanaur,Punjab,32.01227,75.15063
132348,Kalas,Maharashtra,18.17241,74.79045
132349,Kalavai,Tamil Nadu,12.77029,79.41999
132350,Kalavoor,Kerala,9.57046,76.32756
132351,Kalghatgi,Karnataka,15.18315,74.97099
132352,Kallakkurichchi,Tamil Nadu,11.7404,78.959
132353,Kallidaikurichi,Tamil Nadu,8.68591,77.46592
132354,Kallupatti,Tamil Nadu,9.71667,77.86667
132355,Kalmeshwar,Maharashtra,21.23219,78.91988
132356,Kalpetta,Kerala,11.60871,76.08343
132357,Kalugumalai,Tamil Nadu,9.14941,77.70569
132358,Kalyandurg,Andhra Pradesh,14.54519,77.10552
132359,Kalyan,Maharashtra,19.2437,73.13554
132360,Kalanaur,Haryana,28.82823,76.3955
132361,Kamalganj,Uttar Pradesh,27.26181,79.63134
132362,Kamalpur,Tripura,24.19593,91.83438
132363,Kamareddy,Telangana,18.32567,78.33416
132364,Kampil,Uttar Pradesh,27.61268,79.27687
132365,Kampli,Karnataka,15.40626,76.60013
132366,Kamrup Metropolitan,Assam,26.05375,92.00763
132367,Kamuthi,Tamil Nadu,9.40732,78.37337
132368,Kanadukattan,Tamil Nadu,10.17209,78.77935
132369,Kancheepuram,Tamil Nadu,12.67,79.99
132370,Kanchipuram,Tamil Nadu,12.83515,79.70006
132371,Kandhamal,Odisha,20.3,84.0
132372,Kandukur,Andhra Pradesh,15.21542,79.9039
132373,Kangayam,Tamil Nadu,11.00599,77.5609
132374,Kanigiri,Andhra Pradesh,15.40555,79.50694
132375,Kankauli,Maharashtra,16.26609,73.71217
132376,Kankipadu,Andhra Pradesh,16.4353,80.76715
132377,Kannad,Maharashtra,20.25684,75.13786
132378,Kannauj,Uttar Pradesh,27.0177,79.67846
132379,Kannavam,Kerala,11.8445,75.66266
132380,Kanniyakumari,Tamil Nadu,8.32,77.34
132382,Kannod,Madhya Pradesh,22.66764,76.74286
132383,Kannur,Kerala,12.16667,75.33333
132384,Kanpur,Uttar Pradesh,26.46523,80.34975
132385,Kanpur Dehat,Uttar Pradesh,26.41506,79.98957
132386,Kantilo,Odisha,20.36152,85.19212
132387,Kantabanji,Odisha,20.46709,82.92042
132388,Kanuru,Andhra Pradesh,16.28584,81.25464
132389,Kanina Khas,Haryana,28.33093,76.31099
132390,Kapadvanj,Gujarat,23.02302,73.07113
132392,Kapurthala,Punjab,31.38011,75.38105
132393,Karambakkudi,Tamil Nadu,10.45866,79.14101
132394,Karamsad,Gujarat,22.54243,72.90392
132395,Karanpur,Rajasthan,29.84042,73.45519
132396,Karauli,Rajasthan,26.58,77.1
132397,Kareli,Madhya Pradesh,22.91533,79.06378
132398,Karera,Madhya Pradesh,25.45815,78.13583
132399,Kargil,Ladakh,34.55765,76.12622
132400,Karhal,Uttar Pradesh,27.00089,78.93935
132401,Kariapatti,Tamil Nadu,9.67505,78.09992
132402,Karimganj,Assam,24.6,92.4
132403,Karjat,Maharashtra,18.9107,73.32354
132404,Karmala,Maharashtra,18.4077,75.19386
132405,Karnal,Haryana,29.66667,76.83333
132406,Karol Bagh,Delhi,28.65136,77.19072
132407,Karrapur,Madhya Pradesh,23.94891,78.86584
132408,Kartarpur,Punjab,31.44268,75.49847
132409,Karumbakkam,Tamil Nadu,12.70203,80.0911
132410,Karur,Tamil Nadu,10.95771,78.08095
132411,Karwar,Karnataka,14.81361,74.12972
132412,Karad,Maharashtra,17.28937,74.18183
132413,Karari,Uttar Pradesh,25.45241,81.42675
132415,Karimnagar,Telangana,18.33844,79.22938
132416,Kasauli,Himachal Pradesh,30.89856,76.96587
132417,Kasba,Bihar,25.85643,87.53836
132418,Kashipur,,29.21399,78.95693
132419,Kasrawad,Madhya Pradesh,22.12745,75.61101
132420,Katangi,Madhya Pradesh,21.77369,79.80513
132421,Katghora,Chhattisgarh,22.50247,82.54279
132422,Kathua,Jammu and Kashmir,32.58333,75.5
132423,Katihar,Bihar,25.5,87.6
132424,Katni,Madhya Pradesh,23.83555,80.39417
132425,Katpur,Gujarat,21.05869,71.79457
132426,Katra,Uttar Pradesh,27.50871,82.02636
132427,Katra,Jammu and Kashmir,32.99167,74.93195
132428,Kattanam,Kerala,9.17614,76.56325
132429,Kattivakkam,Tamil Nadu,13.21667,80.31667
132430,Kaushambi District,Uttar Pradesh,25.53074,81.37729
132431,Kavalur,Karnataka,15.28829,75.9433
132432,Kavaratti,Lakshadweep,10.56688,72.64203
132433,Kawardha,Chhattisgarh,22.00853,81.23148
132434,Kawant,Gujarat,22.09282,74.05078
132435,Kayalpattinam,Tamil Nadu,8.57143,78.11992
132436,Kayattar,Tamil Nadu,8.94834,77.77424
132437,Keelakarai,Tamil Nadu,9.23183,78.78545
132438,Kekri,Rajasthan,25.97132,75.14992
132439,Kelamangalam,Tamil Nadu,12.60307,77.85193
132440,Kemri,Uttar Pradesh,28.80673,79.2048
132441,Kendrapara,Odisha,20.5,86.5
132443,Kenduadih,Jharkhand,23.77574,86.37609
132444,Kendujhar,Odisha,21.5,85.5
132445,Kerur,Karnataka,16.01384,75.54631
132446,Keshod,Gujarat,21.30328,70.24861
132447,Keshorai Patan,Rajasthan,25.29275,75.93948
132448,Kesinga,Odisha,20.18778,83.21949
132449,Khada,Uttar Pradesh,27.18333,83.88333
132450,Khadki,Maharashtra,18.5635,73.85205
132451,Khagaria,Bihar,25.5022,86.46708
132452,Khagaul,Bihar,25.57898,85.04564
132453,Khailar,Madhya Pradesh,25.34127,78.53133
132454,Khair,Uttar Pradesh,27.94195,77.84243
132455,Khairabad,Uttar Pradesh,27.52698,80.75461
132456,Khairagarh,Chhattisgarh,21.41859,80.97942
132457,Khajuraho Group of Monuments,Madhya Pradesh,24.84809,79.93351
132458,Khallikot,Odisha,19.60908,85.08609
132459,Khalilabad,Uttar Pradesh,26.77268,83.07179
132460,Khamaria,Madhya Pradesh,23.22558,79.88007
132462,Khambhat,Gujarat,22.31744,72.61916
132463,Khamharia,Chhattisgarh,20.976,82.25116
132464,Khammam,Telangana,17.5,80.33333
132465,Khamanon,Punjab,30.81725,76.35478
132466,Khandela,Rajasthan,27.60499,75.502
132467,Khandwa,Madhya Pradesh,21.82427,76.35086
132469,Khanna,Punjab,30.70547,76.22196
132470,Kharagpur,Bihar,25.12446,86.55578
132471,Kharakvasla,Maharashtra,18.43997,73.77545
132472,Kharar,Punjab,30.74632,76.64689
132473,Kharela,Uttar Pradesh,25.54277,79.81235
132474,Khargone,Madhya Pradesh,21.82306,75.61028
132475,Khargupur,Uttar Pradesh,27.37611,81.9882
132476,Khargapur,Madhya Pradesh,24.823,79.144
132477,Kharhial,Odisha,20.28845,82.7606
132478,Kharkhauda,Haryana,28.8787,76.91069
132479,Kharkhauda,Uttar Pradesh,28.83644,77.74159
132480,Kharod,Chhattisgarh,21.7442,82.5788
132481,Kharsia,Chhattisgarh,21.98953,83.10476
132482,Kharsawan,Jharkhand,22.79093,85.83102
132483,Khatauli,Uttar Pradesh,29.27844,77.73302
132484,Khatima,,28.92134,79.97075
132485,Khaur,Jammu and Kashmir,32.6027,74.80918
132486,Khawhai,Mizoram,23.37807,93.12797
132487,Khed,Maharashtra,17.71888,73.39693
132488,Kheda,Gujarat,22.75,72.83333
132489,Khedbrahma,Gujarat,24.0299,73.04632
132490,Khekra,Uttar Pradesh,28.86586,77.2841
132491,Khemkaran,Punjab,31.14443,74.55938
132492,Kheri,Uttar Pradesh,28.11667,80.71667
132493,Kheri Sampla,Haryana,28.7781,76.7756
132494,Kheralu,Gujarat,23.88534,72.61869
132495,Khetia,Maharashtra,21.67124,74.58535
132496,Khetri,Rajasthan,28.00069,75.78644
132497,Khilchipur,Madhya Pradesh,24.03943,76.578
132498,Khirkiyan,Madhya Pradesh,22.16732,76.86137
132499,Khonsa,Arunachal Pradesh,27.01667,95.56667
132500,Khopoli,Maharashtra,18.78562,73.34589
132501,Khordha,Odisha,20.2,85.6
132502,Khowai,Tripura,24.07964,91.59972
132503,Khudaganj,Uttar Pradesh,28.14607,79.71472
132504,Khujner,Madhya Pradesh,23.78597,76.61773
132505,Khuldabad,Maharashtra,20.00671,75.19245
132506,Khunti,Jharkhand,23.07602,85.27818
132507,Khurai,Madhya Pradesh,24.04372,78.33014
132508,Khurda,Odisha,20.18268,85.61629
132509,Khurja,Uttar Pradesh,28.25382,77.85535
132510,Khusropur,Bihar,25.48174,85.38492
132511,Khachrod,Madhya Pradesh,23.42322,75.28185
132512,Khaga,Uttar Pradesh,25.77215,81.10393
132513,Khamgaon,Maharashtra,20.70738,76.56827
132514,Khanpur,Uttar Pradesh,28.53446,78.06546
132515,Khanpur,Rajasthan,24.73241,76.39601
132516,Khanapur,Karnataka,15.63969,74.50847
132517,Khapa,Maharashtra,21.42243,78.98168
132518,Kharupatia,Assam,26.51839,92.14722
132519,Khategaon,Madhya Pradesh,22.59573,76.9133
132520,Khutar,Uttar Pradesh,28.20307,80.27046
132521,Kichha,,28.91154,79.52009
132522,Kilvelur,Tamil Nadu,10.76721,79.74186
132523,Kinnaur,Himachal Pradesh,31.58333,78.41667
132524,Kinwat,Maharashtra,19.62557,78.1987
132525,Kirandul,Chhattisgarh,18.63649,81.25827
132526,Kiraoli,Uttar Pradesh,27.13768,77.78516
132527,Kiri Buru,Odisha,22.08333,85.35
132528,Kirakat,Uttar Pradesh,25.63745,82.91596
132529,Kishanganj,Bihar,26.3,88.0
132530,Kishangarh,Rajasthan,26.59006,74.85397
132531,Kishanpur,Uttar Pradesh,25.64232,81.0227
132532,Kishni,Uttar Pradesh,27.02487,79.262
132533,Kishtwar,Jammu and Kashmir,33.52958,76.01462
132535,Kithor,Uttar Pradesh,28.86684,77.93861
132536,Kizhake Chalakudi,Kerala,10.30067,76.33763
132537,Kodagu,Karnataka,12.41667,75.75
132538,Kodaikanal,Tamil Nadu,10.23925,77.48932
132539,Kodala,Odisha,19.62425,84.94075
132540,Kodarma,Jharkhand,24.46753,85.59397
132541,Kodigenahalli,Karnataka,13.72136,77.38629
132542,Kodlipet,Karnataka,12.80087,75.88662
132543,Kodoli,Maharashtra,16.87639,74.1909
132544,Kodumudi,Tamil Nadu,11.07751,77.88363
132545,Kodungallur,Kerala,10.23263,76.19513
132546,Kodar,Telangana,16.9985,79.9656
132547,Kodinar,Gujarat,20.79393,70.70216
132548,Koelwar,Bihar,25.58055,84.79751
132549,Kohima,Nagaland,25.67467,94.11099
132551,Kokrajhar,Assam,26.6,90.2
132552,Kolanukonda,Andhra Pradesh,16.45392,80.61046
132553,Kolar,Karnataka,13.13,78.23
132554,Kolasib,Mizoram,24.22388,92.67869
132556,Kolhapur,Maharashtra,16.69013,74.22981
132558,Kollam,Kerala,8.88113,76.58469
132559,Kollegal,Karnataka,12.15449,77.11051
132561,Kolaras,Madhya Pradesh,25.21928,77.61167
132562,Kombai,Tamil Nadu,9.84745,77.29603
132563,Konanur,Karnataka,12.63016,76.05037
132564,Konch,Uttar Pradesh,25.99451,79.15127
132565,Kondagaon,Chhattisgarh,19.59083,81.664
132566,Kondalwadi,Maharashtra,18.80727,77.77031
132567,Kondapalle,Andhra Pradesh,16.61989,80.54244
132568,Konganapuram,Tamil Nadu,11.57105,77.9004
132569,Konnur,Karnataka,16.20138,74.74886
132570,Konarka,Odisha,19.89758,86.11413
132571,Koothanallur,Tamil Nadu,10.7199,79.5157
132572,Kopargaon,Maharashtra,19.88239,74.47605
132573,Koppa,Karnataka,13.53044,75.36329
132574,Koppal,Karnataka,15.5,76.2
132575,Kopaganj,Uttar Pradesh,26.01923,83.5663
132576,Koradachcheri,Tamil Nadu,10.77019,79.49158
132577,Korampallam,Tamil Nadu,8.77506,78.09158
132578,Koraput,Odisha,19.0,83.0
132579,Koratagere,Karnataka,13.522,77.2373
132580,Koratla,Telangana,18.82154,78.71186
132581,Korba,Chhattisgarh,22.5,82.6
132582,Koregaon,Maharashtra,18.64573,74.05909
132583,Koria,Chhattisgarh,23.48326,82.15037
132584,Korukollu,Andhra Pradesh,16.5,81.25
132585,Korwai,Madhya Pradesh,24.11774,78.04007
132586,Koradi,Maharashtra,21.24758,79.10575
132588,Kosamba,Gujarat,21.46202,72.95842
132589,Kosi,Uttar Pradesh,27.79449,77.4368
132590,Kosigi,Andhra Pradesh,15.8551,77.24463
132591,Kot Isa Khan,Punjab,30.94659,75.1378
132592,Kota,Uttar Pradesh,24.44643,83.13063
132593,Kota,Rajasthan,25.17512,75.84412
132594,Kotagiri,Tamil Nadu,11.42072,76.86035
132595,Kotamangalam,Kerala,10.06435,76.62843
132596,Kotaparh,Chhattisgarh,19.14256,82.32536
132597,Kotdwara,,29.74612,78.52219
132598,Kothi,Madhya Pradesh,24.7526,80.77751
132599,Kothapet,Telangana,19.35176,79.48323
132600,Kotkapura,Punjab,30.5819,74.83298
132601,Kotkhai,Himachal Pradesh,31.11728,77.53936
132602,Kotla,Himachal Pradesh,32.25,76.03333
132603,Kotma,Madhya Pradesh,23.20383,81.97904
132604,Kotputli,Rajasthan,27.70207,76.19911
132605,Kotra,Uttar Pradesh,25.8077,79.30909
132606,Kottagudem,Telangana,17.55106,80.61779
132607,Kottaiyur,Tamil Nadu,10.10956,78.7956
132608,Kottapalli,Telangana,18.49543,79.0943
132609,Kottayam,Kerala,9.66667,76.66667
132610,Kotturu,Karnataka,14.82442,76.22005
132611,Kotwa,Madhya Pradesh,25.0308,81.31908
132612,Kota,Chhattisgarh,22.29507,82.02366
132613,Kotar,Madhya Pradesh,24.69802,80.98073
132614,Kovalam,Kerala,8.36667,76.99667
132615,Kovilpatti,Tamil Nadu,9.17167,77.86989
132616,Kovvur,Andhra Pradesh,17.0162,81.72934
132618,Koynanagar,Maharashtra,17.4,73.76667
132619,Kozhikode,Kerala,11.5,76.0
132620,Koath,Bihar,25.32643,84.25983
132621,Krishna,Andhra Pradesh,16.66667,81.0
132622,Krishnagiri,Tamil Nadu,12.58,77.96
132623,Krishnarajpet,Karnataka,12.66621,76.4877
132624,Kuchaiburi,Odisha,22.26675,86.17385
132625,Kuchera,Rajasthan,26.98747,73.97108
132626,Kuchinda,Odisha,21.74356,84.34848
132627,Kuchaman,Rajasthan,27.14745,74.85655
132628,Kudachi,Karnataka,16.62784,74.85408
132629,Kudal,Maharashtra,16.01148,73.68867
132630,Kuju,Jharkhand,23.72536,85.51023
132631,Kukshi,Madhya Pradesh,22.20677,74.75788
132632,Kulattur,Tamil Nadu,9.0032,78.1928
132633,Kulgam,Jammu and Kashmir,33.64456,75.01923
132634,Kulittalai,Tamil Nadu,10.93487,78.41251
132635,Kulpahar,Uttar Pradesh,25.32007,79.63931
132636,Kulu,Himachal Pradesh,32.0,77.25
132637,Kumaralingam,Tamil Nadu,10.48936,77.3499
132638,Kumbakonam,Tamil Nadu,10.96209,79.39124
132639,Kumbalam,Kerala,9.9063,76.31127
132640,Kumbhraj,Madhya Pradesh,24.37338,77.04841
132641,Kumhari,Chhattisgarh,21.26667,81.51667
132642,Kumsi,Karnataka,14.05455,75.39992
132643,Kumta,Karnataka,14.42853,74.4189
132644,Kunda,Uttar Pradesh,25.71702,81.51396
132645,Kundarkhi,Uttar Pradesh,28.68304,78.78559
132646,Kundgol,Karnataka,15.25612,75.24735
132647,Kundla,Gujarat,21.34222,71.30633
132648,Kunigal,Karnataka,13.02319,77.02518
132649,Kunnamangalam,Kerala,11.30459,75.87772
132650,Kunnamkulam,Kerala,10.64667,76.06695
132651,Kunnattur,Tamil Nadu,12.34782,78.51046
132652,Kunnumma,Kerala,9.35672,76.41343
132653,Kuppam,Andhra Pradesh,12.74931,78.34189
132654,Kupwara,Jammu and Kashmir,34.53193,74.26605
132656,Kurandvad,Maharashtra,16.68317,74.58892
132657,Kurduvadi,Maharashtra,18.09339,75.41567
132658,Kurgunta,Karnataka,17.19321,77.35772
132659,Kurinjippadi,Tamil Nadu,11.55028,79.59066
132660,Kurnool,Andhra Pradesh,15.58333,78.33333
132661,Kurud,Chhattisgarh,20.83073,81.72212
132662,Kurukshetra,Haryana,30.0,76.75
132663,Kurung Kumey,Arunachal Pradesh,27.99983,93.3924
132664,Kurara,Uttar Pradesh,25.98046,79.98984
132665,Kushinagar,Uttar Pradesh,26.74028,83.88889
132666,Kushtagi,Karnataka,15.75623,76.19112
132667,Kushalgarh,Rajasthan,23.19899,74.45074
132668,Kushalnagar,Karnataka,12.45795,75.95904
132669,Kutiatodu,Kerala,9.8,76.33333
132670,Kutiyana,Gujarat,21.6241,69.98494
132671,Kuttampuzha,Kerala,10.15033,76.73544
132672,Kuttalam,Tamil Nadu,8.9303,77.26951
132673,Kuzhithurai,Tamil Nadu,8.31792,77.19192
132674,Kyathampalle,Telangana,19.66781,78.5289
132675,Kyelang,Himachal Pradesh,32.5717,77.02448
132676,Kadipur,Uttar Pradesh,26.16779,82.37028
132677,Kagal,Maharashtra,16.57702,74.31544
132678,Kakinada,Andhra Pradesh,16.96036,82.23809
132679,Kakori,Uttar Pradesh,26.868,80.7857
132680,Kalikapur,Jharkhand,22.61662,86.2881
132681,Kalka,Himachal Pradesh,30.83982,76.94065
132682,Kalol,Gujarat,22.60777,73.46272
132683,Kalpi,Uttar Pradesh,26.11667,79.73333
132684,Kalundri,Maharashtra,18.9802,73.12708
132685,Kaladhungi,,29.28351,79.351
132686,Kalagarh Project Colony,,29.4778,78.78449
132687,Kalahandi,Odisha,19.75,83.0
132688,Kalanwali,Haryana,29.83573,74.9717
132689,Kalavad,Gujarat,22.20789,70.38343
132690,Kalinagar,Uttar Pradesh,28.62019,80.08152
132691,Kamalapuram,Andhra Pradesh,14.5983,78.66948
132692,Kaman,Rajasthan,27.65791,77.26908
132693,Kamrup,Assam,26.22322,91.65344
132695,Kamakhyanagar,Odisha,20.93385,85.54489
132696,Kamareddi,Telangana,18.32001,78.34177
132697,Kandhla,Uttar Pradesh,29.32104,77.27101
132698,Kandla,Gujarat,23.03333,70.21667
132699,Kandra,Jharkhand,22.8517,86.05192
132700,Kandri,Maharashtra,21.4203,79.27663
132701,Kangar,Himachal Pradesh,32.09135,76.26267
132702,Kangra,Himachal Pradesh,32.16667,76.25
132703,Kanke,Jharkhand,23.43478,85.32059
132704,Kanker,Chhattisgarh,20.27193,81.49177
132705,Kankon,Goa,15.02698,74.04617
132706,Kankanhalli,Karnataka,12.54654,77.42005
132707,Kanhangad,Kerala,12.30814,75.10632
132708,Kanodar,Gujarat,24.08932,72.39354
132709,Kanor,Rajasthan,24.43437,74.26546
132711,Kant,Uttar Pradesh,27.81049,79.79185
132712,Kanth,Uttar Pradesh,29.05939,78.62951
132713,Kapren,Rajasthan,25.40529,76.07431
132714,Karaikkudi,Tamil Nadu,10.06615,78.76784
132715,Karaikal,Puducherry,10.92209,79.83353
132716,Karamadai,Tamil Nadu,11.24058,76.96009
132717,Karanja,Maharashtra,20.48273,77.48857
132718,Karbi Anglong,Assam,26.0,93.5
132719,Karkala,Karnataka,13.21428,74.99234
132720,Kasaragod,Kerala,12.49838,74.98959
132722,Kasganj,Uttar Pradesh,27.80882,78.64579
132723,Kathor,Gujarat,21.28854,72.9407
132724,Kati,Maharashtra,17.96137,75.88895
132725,Katol,Maharashtra,21.27388,78.5858
132726,Katpadi,Tamil Nadu,12.96951,79.14552
132727,Katras,Jharkhand,23.79752,86.29834
132728,Kattupputtur,Tamil Nadu,10.99385,78.21929
132729,Kavali,Andhra Pradesh,14.9163,79.99449
132730,Kaveripatnam,Tamil Nadu,12.42186,78.2188
132731,Kayankulam,Kerala,9.18173,76.50093
132732,Kil Bhuvanagiri,Tamil Nadu,11.44216,79.64763
132733,Kiranur,Tamil Nadu,10.56988,78.78682
132734,Kiratpur,Uttar Pradesh,29.50671,78.20613
132735,Kud,Jammu and Kashmir,33.07246,75.28727
132736,Kudligi,Karnataka,14.905,76.38527
132737,Kukatpally,Telangana,17.48486,78.41376
132738,Kumher,Rajasthan,27.31657,77.37079
132739,Lachhmangarh Sikar,Rajasthan,27.82294,75.02754
132740,Ladakh,Jammu and Kashmir,34.33333,77.41667
132741,Lahar,Madhya Pradesh,26.19401,78.94137
132742,Lakhimpur,Assam,27.35,94.25
132743,Lakhipur,Assam,24.79281,93.0091
132744,Lakhisarai,Bihar,25.2,86.2
132745,Lakhna,Uttar Pradesh,26.64822,79.1477
132746,Lakhnadon,Madhya Pradesh,22.60049,79.60094
132747,Lakhtar,Gujarat,22.85683,71.78844
132748,Lakhimpur,Uttar Pradesh,27.94822,80.77935
132749,Laksar,,29.7587,78.04148
132750,Lakshadweep,Lakshadweep,11.27333,74.04582
132751,Lakshettipet,Telangana,18.86667,79.21667
132752,Lakshmeshwar,Karnataka,15.12689,75.46935
132753,Lal Bahadur Nagar,Telangana,17.34769,78.55757
132754,Lalgudi,Tamil Nadu,10.87419,78.81935
132755,Lalitpur,Uttar Pradesh,24.5,78.5
132756,Lansdowne,,29.84183,78.68014
132757,Lar,Uttar Pradesh,26.20394,83.96906
132758,Latehar,Jharkhand,23.75,84.4
132759,Latur,Maharashtra,18.4,76.8
132760,Laungowal,Punjab,30.19393,75.68089
132761,Lawngtlai,Mizoram,22.53,92.9
132762,Leh,Ladakh,34.16504,77.58402
132763,Leteri,Madhya Pradesh,24.05979,77.40858
132764,Limbdi,Gujarat,22.56507,71.81076
132765,Lingsugur,Karnataka,16.15876,76.52174
132766,Lodhikheda,Madhya Pradesh,21.58235,78.85911
132767,Lohaghat,,29.40356,80.08965
132768,Lohardaga,Jharkhand,23.5,84.6
132769,Lohit District,Arunachal Pradesh,27.84012,96.19521
132770,Lohogaon,Maharashtra,18.59921,73.92701
132772,Loharu,Haryana,28.42993,75.80779
132773,Lonavla,Maharashtra,18.75275,73.40575
132774,Londa,Karnataka,15.46907,74.51906
132775,Loni,Uttar Pradesh,28.75143,77.29023
132776,Lonar,Maharashtra,19.98533,76.52046
132777,Lormi,Chhattisgarh,22.27434,81.70181
132778,Losal,Rajasthan,27.4,74.91667
132779,Lower Dibang Valley,Arunachal Pradesh,28.37258,95.8804
132780,Lower Subansiri,Arunachal Pradesh,27.62554,93.93908
132781,Luckeesarai,Bihar,25.1765,86.0947
132782,Lucknow,Uttar Pradesh,26.83928,80.92313
132783,Lucknow District,Uttar Pradesh,26.75,81.0
132785,Ludhiana,Punjab,30.91204,75.85379
132786,Lumding Railway Colony,Assam,25.74903,93.16998
132787,Lunglei,Mizoram,22.9,92.75
132788,Ladnun,Rajasthan,27.65312,74.39993
132789,Ladwa,Haryana,29.9935,77.04563
132790,Laharpur,Uttar Pradesh,27.70827,80.90256
132791,Lahul and Spiti,Himachal Pradesh,32.5,77.83333
132792,Lakheri,Rajasthan,25.67237,76.17692
132793,Lala,Assam,24.55418,92.61592
132794,Lalam,Kerala,9.71667,76.7
132795,Lalganj,Bihar,25.86894,85.17394
132796,Lalganj,Uttar Pradesh,25.93182,81.70478
132797,Lalpur,Gujarat,22.19073,69.96351
132798,Lalsot,Rajasthan,26.55951,76.32915
132799,Lanja,Maharashtra,16.86086,73.54993
132800,Lasalgaon,Maharashtra,20.1427,74.23946
132802,Lathi,Gujarat,21.7231,71.38843
132803,Lawar Khas,Uttar Pradesh,29.11091,77.77767
132804,Lunavada,Gujarat,23.12841,73.61043
132805,Machhlishahr,Uttar Pradesh,25.68564,82.41106
132806,Machilipatnam,Andhra Pradesh,16.18747,81.13888
132807,Madambakkam,Tamil Nadu,12.8525,80.04667
132808,Madanapalle,Andhra Pradesh,13.5503,78.50288
132809,Maddagiri,Karnataka,13.66035,77.21239
132810,Maddur,Karnataka,12.58283,77.04294
132811,Madgaon,Goa,15.27501,73.95786
132812,Madhepura,Bihar,25.8,87.0
132814,Madhogarh,Madhya Pradesh,24.56401,80.91126
132815,Madhubani,Bihar,26.35367,86.07169
132816,Madhupur,Jharkhand,24.27419,86.63929
132817,Madikeri,Karnataka,12.42602,75.7382
132818,Madipakkam,Tamil Nadu,12.96226,80.19864
132819,Madukkarai,Tamil Nadu,10.90568,76.96344
132820,Madukkur,Tamil Nadu,10.48098,79.39939
132821,Madurai,Tamil Nadu,9.89,78.03
132822,Madurantakam,Tamil Nadu,12.51167,79.88485
132823,Maghar,Uttar Pradesh,26.75586,83.12773
132824,Mahabubabad,Telangana,17.6004,80.00543
132825,Maham,Haryana,28.96912,76.29495
132826,Maharajganj,Uttar Pradesh,27.16945,83.50667
132827,Mahasamund,Chhattisgarh,21.2,82.5
132828,Mahbubnagar,Telangana,16.63171,77.75556
132830,Mahe,Puducherry,11.7,75.53333
132831,Mahemdavad,Gujarat,22.82359,72.75551
132832,Mahendragarh,Haryana,28.25,76.16667
132833,Maheshwar,Madhya Pradesh,22.17592,75.58715
132834,Mahesana,Gujarat,23.66667,72.5
132835,Mahgawan,Madhya Pradesh,26.49471,78.61593
132836,Mahmudabad,Uttar Pradesh,27.29191,81.11775
132837,Mahoba,Uttar Pradesh,25.2921,79.87242
132839,Maholi,Uttar Pradesh,27.66368,80.47371
132840,Mahroni,Uttar Pradesh,24.58624,78.72771
132841,Mahudha,Gujarat,22.82082,72.94032
132842,Mahur,Assam,25.18305,93.11342
132843,Mahwah,Rajasthan,27.04594,76.93152
132844,Mahabaleshwar,Maharashtra,17.56,73.4
132845,Mahaban,Uttar Pradesh,27.43262,77.74338
132846,Mahad,Maharashtra,18.08333,73.41667
132847,Mahalingpur,Karnataka,16.3888,75.10873
132849,Maharajgani,Bihar,26.11017,84.50365
132852,Mahe,Kerala,11.70172,75.53474
132853,Maibong,Assam,25.30125,93.13811
132854,Maihar,Madhya Pradesh,24.26594,80.76063
132855,Mailani,Uttar Pradesh,28.29088,80.3438
132856,Maindargi,Maharashtra,17.45739,76.2932
132857,Mainpuri,Uttar Pradesh,27.16667,79.0
132858,Mairang,Meghalaya,25.56165,91.63602
132859,Mairwa,Bihar,26.23218,84.16349
132860,Majholi,Madhya Pradesh,23.50114,79.92396
132861,Majitha,Punjab,31.75711,74.95891
132862,Makhu,Punjab,31.10335,74.99631
132863,Makrana,Rajasthan,27.04361,74.72445
132864,Maksi,Madhya Pradesh,23.25999,76.14567
132866,Malappuram,Kerala,11.0,76.16667
132867,Malaut,Punjab,30.21121,74.4818
132868,Malavalli,Karnataka,12.38556,77.06045
132869,Malhargarh,Madhya Pradesh,24.28286,74.99024
132870,Malkajgiri,Telangana,17.44781,78.52633
132871,Malkangiri,Odisha,18.25,81.95
132872,Malkapur,Maharashtra,17.26214,74.17574
132873,Malkera,Jharkhand,23.78213,86.28767
132875,Mallasamudram,Tamil Nadu,11.49333,78.03119
132876,Mallapuram,Tamil Nadu,11.98231,78.24796
132877,Malpe,Karnataka,13.34962,74.70394
132878,Malihabad,Uttar Pradesh,26.92223,80.71078
132879,Mamit,Mizoram,23.78492,92.46939
132880,Manali,Tamil Nadu,13.16667,80.26667
132881,Manalurpettai,Tamil Nadu,12.00788,79.09184
132882,Manamadurai,Tamil Nadu,9.67318,78.47096
132883,Manappakkam,Tamil Nadu,13.01083,80.16861
132884,Manapparai,Tamil Nadu,10.60772,78.42582
132885,Manavalakurichi,Tamil Nadu,8.14776,77.30552
132886,Manchar,Maharashtra,19.00436,73.94346
132887,Mancheral,Telangana,18.87074,79.42863
132888,Mandamarri,Telangana,18.96506,79.47475
132889,Mandapam,Tamil Nadu,9.27571,79.12362
132890,Mandapeta,Andhra Pradesh,16.86254,81.92921
132891,Mandasa,Andhra Pradesh,18.8683,84.46296
132892,Mandholi Kalan,Haryana,28.7085,75.68296
132893,Mandi,Himachal Pradesh,31.71194,76.93273
132894,Mandideep,Madhya Pradesh,23.08166,77.53328
132895,Mandla,Madhya Pradesh,22.64041,80.51344
132897,Mandsaur,Madhya Pradesh,24.33333,75.25
132898,Mandya,Karnataka,12.5223,76.89746
132899,Mandawar,Uttar Pradesh,29.48655,78.12732
132900,Mandawar,Rajasthan,27.86374,76.54999
132901,Maner,Bihar,25.64602,84.87291
132902,Mangalagiri,Andhra Pradesh,16.43083,80.56815
132903,Mangalam,Tamil Nadu,9.76473,78.64037
132904,Mangaldai,Assam,26.44212,92.03047
132905,Mangaluru,Karnataka,12.91723,74.85603
132906,Mangan,Sikkim,27.50965,88.52206
132907,Mangawan,Madhya Pradesh,24.66754,81.54644
132908,Manglaur,,29.79094,77.87836
132909,Mangrul Pir,Maharashtra,20.31379,77.34178
132910,Maniar,Uttar Pradesh,25.98546,84.17233
132911,Manihari,Bihar,25.33891,87.61998
132912,Manipal,Karnataka,13.35,74.78333
132913,Manjeri,Kerala,11.12018,76.11996
132914,Manjhanpur,Uttar Pradesh,25.53046,81.37566
132915,Manjeshwaram,Kerala,12.71287,74.88857
132916,Mankachar,Meghalaya,25.53347,89.86373
132917,Mankapur,Uttar Pradesh,27.05189,82.22961
132918,Manmad,Maharashtra,20.25334,74.43755
132919,Mannargudi,Tamil Nadu,10.66626,79.45064
132920,Mannarakkat,Kerala,10.99223,76.46418
132921,Manohar Thana,Rajasthan,24.24,76.80182
132922,Manoharpur,Rajasthan,27.29769,75.9495
132923,Manoharpur,Jharkhand,22.37456,85.19234
132924,Manor,Maharashtra,19.7244,72.90966
132926,Mansar,Maharashtra,21.39602,79.2635
132927,Manthani,Telangana,18.65087,79.66501
132928,Manuguru,Telangana,17.98102,80.7547
132929,Manali,Himachal Pradesh,32.2574,77.17481
132930,Manasa,Madhya Pradesh,24.47764,75.14095
132931,Manawar,Madhya Pradesh,22.23566,75.08917
132932,Marakkanam,Tamil Nadu,12.19214,79.94193
132933,Marayur,Kerala,10.27641,77.16205
132934,Margherita,Arunachal Pradesh,27.28482,95.66796
132935,Marhaura,Bihar,25.97349,84.86796
132936,Mariahu,Uttar Pradesh,25.60404,82.60379
132937,Mariani,Assam,26.65725,94.31529
132938,Masaurhi Buzurg,Bihar,25.35417,85.03195
132939,Masinigudi,Tamil Nadu,11.56831,76.64087
132940,Mataundh,Uttar Pradesh,25.43594,80.15653
132941,Mathura,Uttar Pradesh,27.63333,77.58333
132942,Mattanur,Kerala,11.93018,75.57152
132943,Mau,Madhya Pradesh,26.26584,78.67108
132944,Mau,Uttar Pradesh,26.0294,83.50756
132945,Mau Aimma,Uttar Pradesh,25.69515,81.92336
132946,Maudaha,Uttar Pradesh,25.68312,80.11419
132947,Mauganj,Madhya Pradesh,24.66721,81.87339
132948,Maur Mandi,Punjab,30.08333,75.25
132950,Mavoor,Kerala,11.26667,75.91667
132951,Mawana,Uttar Pradesh,29.10288,77.92199
132952,Mayiladuthurai,Tamil Nadu,11.10354,79.655
132953,Imphal West,Manipur,24.60998,93.88873
132954,Mayurbhanj,Odisha,21.75,86.5
132955,Medak,Telangana,17.75,78.25
132956,Medchal,Telangana,17.62972,78.48139
132957,Medchal Malkajgiri,Telangana,17.60644,78.54007
132958,Meerut,Uttar Pradesh,28.91667,77.68333
132959,Meethari Marwar,Rajasthan,27.57615,74.68661
132960,Meghraj,Gujarat,23.49805,73.51352
132961,Mehekar,Maharashtra,20.1505,76.56841
132962,Mehnagar,Uttar Pradesh,25.87889,83.11611
132963,Mehndawal,Uttar Pradesh,26.97579,83.10995
132964,Melukote,Karnataka,12.66258,76.64861
132965,Melur,Tamil Nadu,10.03241,78.3393
132966,Mendarda,Gujarat,21.32112,70.44078
132967,Merta,Rajasthan,26.64859,74.03414
132969,Mettuppalaiyam,Tamil Nadu,11.16806,78.44944
132970,Mettur,Tamil Nadu,11.78796,77.8008
132971,Mhasla,Maharashtra,18.1334,73.11162
132972,Mhasvad,Maharashtra,17.63359,74.78773
132973,Mihona,Madhya Pradesh,26.28373,78.98048
132974,Milak,Uttar Pradesh,28.61031,79.16997
132975,Mirialguda,Telangana,16.8722,79.56247
132976,Mirzapur,Uttar Pradesh,25.1449,82.56534
132977,Misrikh,Uttar Pradesh,27.43137,80.53157
132978,Modasa,Gujarat,23.46253,73.29857
132979,Moga,Punjab,30.80376,75.14938
132980,Mohali,Punjab,30.67995,76.72211
132981,Mohanpur,Uttar Pradesh,28.25261,80.24498
132982,Mohanur,Tamil Nadu,11.05936,78.13965
132983,Mohgaon,Madhya Pradesh,21.63941,78.73638
132984,Mohiuddi nagar,Bihar,25.57374,85.66944
132985,Mohpa,Maharashtra,21.31012,78.82969
132986,Mohan,Uttar Pradesh,26.78008,80.67497
132988,Mokameh,Bihar,25.39662,85.9219
132989,Mokokchung,Nagaland,26.31393,94.51675
132990,Mon,Nagaland,26.75,94.83333
132991,Monghyr,Bihar,25.37459,86.47455
132992,Moram,Maharashtra,17.78812,76.47077
132993,Morbi,Gujarat,22.81731,70.8377
132994,Morena,Madhya Pradesh,26.16667,77.5
132995,Morigaon,Assam,26.25213,92.34238
132996,Morinda,Punjab,30.79014,76.49883
132997,Morjim,Goa,15.63097,73.73903
132998,Mormugao,Goa,15.38914,73.81491
132999,Morsi,Maharashtra,21.3403,78.01258
133000,Morwa,Gujarat,22.90469,73.83912
133001,Moradabad,Uttar Pradesh,28.8525,78.79703
133002,Moranha,Assam,27.18735,94.91557
133003,Morar,Madhya Pradesh,26.2264,78.22482
133004,Moth,Uttar Pradesh,25.72595,78.95029
133005,Mothihari,Bihar,26.64862,84.91656
133006,Mowad,Maharashtra,21.46475,78.45103
133007,Mubarakpur,Uttar Pradesh,26.08866,83.29088
133008,Muddebihal,Karnataka,16.33782,76.13173
133009,Mudgal,Karnataka,16.01191,76.44203
133010,Mudgere,Karnataka,13.13353,75.6416
133011,Mudhol,Karnataka,16.33354,75.28305
133012,Mudkhed,Maharashtra,19.15657,77.50304
133013,Mudukulattur,Tamil Nadu,9.34169,78.51388
133014,Mughal Sarai,Uttar Pradesh,25.28307,83.11968
133015,Mugma,Jharkhand,23.77015,86.72746
133016,Muhammadabad,Uttar Pradesh,25.61907,83.75576
133017,Mukerian,Punjab,31.95394,75.61716
133018,Mukher,Maharashtra,18.70636,77.36795
133019,Sri Muktsar Sahib,Punjab,30.47426,74.5166
133020,Mulbagal,Karnataka,13.16352,78.39346
133021,Mulgund,Karnataka,15.2807,75.52132
133022,Multai,Madhya Pradesh,21.77463,78.25756
133023,Muluppilagadu,Kerala,11.79788,75.45111
133024,Mumbai,Maharashtra,19.07283,72.88261
133025,Mumbai Suburban,Maharashtra,19.12636,72.84897
133026,Mundargi,Karnataka,15.20677,75.8839
133027,Mundgod,Karnataka,14.97144,75.03658
133028,Mundi,Madhya Pradesh,22.06693,76.49326
133029,Mundra,Gujarat,22.83918,69.7219
133030,Mungaoli,Madhya Pradesh,24.40837,78.09588
133031,Mungeli,Chhattisgarh,22.06566,81.68543
133032,Munger,Bihar,25.36099,86.46515
133033,Munirabad,Karnataka,15.30928,76.3383
133034,Munnar,Kerala,10.08818,77.06239
133035,Murbad,Maharashtra,19.25395,73.38993
133036,Murgud,Maharashtra,16.39604,74.19142
133037,Murliganj,Bihar,25.8969,86.99577
133038,Mursan,Uttar Pradesh,27.57788,77.94091
133039,Murtajapur,Maharashtra,20.73299,77.36694
133040,Murud (Raigad),Maharashtra,18.32817,72.9621
133041,Murudeshwara,Karnataka,14.0943,74.4845
133042,Murwara,Madhya Pradesh,23.83776,80.39405
133043,Muradnagar,Uttar Pradesh,28.78069,77.49865
133044,Mushabani,Jharkhand,22.51135,86.45713
133045,Musiri,Tamil Nadu,10.95299,78.44427
133046,Mussoorie,,30.45498,78.07068
133047,Mustafabad,Haryana,30.2022,77.14873
133048,Musafir-Khana,Uttar Pradesh,26.37837,81.79607
133049,Muttupet,Tamil Nadu,10.39505,79.49353
133050,Muvattupuzha,Kerala,9.97985,76.57381
133051,Muzaffarnagar,Uttar Pradesh,29.45,77.58333
133052,Muzaffarpur,Bihar,26.16667,85.41667
133053,Mysuru,Karnataka,12.23,76.42
133054,Machalpur,Madhya Pradesh,24.12767,76.31672
133055,Macherla,Andhra Pradesh,16.47635,79.43533
133056,Machhiwara,Punjab,30.91557,76.20016
133057,Madhoganj,Uttar Pradesh,27.11807,80.14058
133058,Madhogarh,Uttar Pradesh,26.27522,79.1859
133059,Madugula,Andhra Pradesh,17.91589,82.81578
133060,Magadi,Karnataka,12.95706,77.22374
133061,Magam,Jammu and Kashmir,34.09256,74.59016
133062,Majalgaon,Maharashtra,19.15988,76.20832
133063,Makhjan,Maharashtra,17.2698,73.50031
133064,Makum,Assam,27.48652,95.43646
133065,Malegaon,Maharashtra,20.54966,74.53462
133066,Malerkotla,Punjab,30.5309,75.87949
133067,Mallur,Tamil Nadu,11.54424,78.14078
133068,Malpur,Gujarat,23.36035,73.46595
133069,Malpura,Rajasthan,26.2838,75.36458
133070,Malvan,Maharashtra,16.05981,73.4629
133071,Malur,Karnataka,13.00322,77.93798
133072,Mandal,Rajasthan,25.44126,74.56979
133073,Mandal,Gujarat,23.28865,71.91854
133074,Mandalgarh,Rajasthan,25.19407,75.07215
133075,Mandleshwar,Madhya Pradesh,22.17598,75.65995
133076,Mandvi,Gujarat,22.83282,69.35237
133077,Mangrol,Gujarat,21.12268,70.11484
133078,Mangrol,Rajasthan,25.33061,76.50973
133079,Manikpur,Uttar Pradesh,25.06083,81.09961
133080,Manpur,Madhya Pradesh,22.43151,75.62107
133081,Mansa,Gujarat,23.42564,72.65739
133082,Mansa,Punjab,29.98844,75.40167
133083,Manvi,Karnataka,15.99126,77.05034
133084,Manwat,Maharashtra,19.30133,76.49735
133085,Manavadar,Gujarat,21.49813,70.13775
133086,Mapuca,Goa,15.59154,73.80898
133087,Marahra,Uttar Pradesh,27.7368,78.56891
133088,Markapur,Andhra Pradesh,15.73534,79.26848
133089,Marandahalli,Tamil Nadu,12.38826,78.00316
133090,Matheran,Maharashtra,18.98281,73.2652
133091,Mattur,Tamil Nadu,11.32147,79.20245
133092,Mavelikara,Kerala,9.25929,76.55642
133093,Mayakonda,Karnataka,14.28894,76.08305
133094,Minjur,Tamil Nadu,13.27951,80.25815
133095,Mirganj,Uttar Pradesh,28.54012,79.20817
133096,Miranpur,Uttar Pradesh,29.29026,77.94939
133097,Miranpur Katra,Uttar Pradesh,28.02963,79.66778
133098,Mudbidri,Karnataka,13.06653,74.99525
133099,Mul,Maharashtra,20.06987,79.67826
133100,Mulanur,Tamil Nadu,10.79426,77.7115
133101,Mulki,Karnataka,13.09101,74.79353
133102,Mundwa,Rajasthan,27.0631,73.82304
133103,Muvattupula,Kerala,9.98493,76.57728
133104,Nabarangpur,Odisha,19.2333,82.55
133105,Nabinagar,Bihar,24.60681,84.12624
133106,Nadiad,Gujarat,22.69385,72.86157
133107,Naduvannur,Kerala,11.48772,75.77511
133108,Naduvattam,Tamil Nadu,11.48075,76.54365
133109,Nadigaon,Uttar Pradesh,26.10784,79.02283
133110,Nagaon,Assam,26.35037,92.69225
133111,Nagapattinam,Tamil Nadu,10.85,79.74
133112,Nagar,Rajasthan,27.42397,77.09922
133113,Nagar,Himachal Pradesh,32.13808,77.17393
133114,Nagari,Andhra Pradesh,13.32139,79.58557
133115,Nagda,Madhya Pradesh,23.45834,75.41759
133116,Nagpur,Maharashtra,21.14631,79.08491
133117,Nagpur Division,Maharashtra,21.14911,79.10748
133118,Nagrota,Himachal Pradesh,32.0571,76.09139
133119,Nagram,Uttar Pradesh,26.61872,81.14043
133120,Nagina,Uttar Pradesh,29.44433,78.43646
133121,Naharlagun,Arunachal Pradesh,27.10467,93.69518
133122,Nahorkatiya,Assam,27.28912,95.3418
133123,Naini Tal,,29.39743,79.44686
133124,Nainpur,Madhya Pradesh,22.42996,80.10561
133125,Nainwa,Rajasthan,25.77145,75.84978
133126,Najafgarh,Delhi,28.60922,76.97982
133127,Najibabad,Uttar Pradesh,29.61194,78.34274
133128,Nakodar,Punjab,31.12586,75.47508
133129,Nakur,Uttar Pradesh,29.91964,77.30438
133130,Nalbari,Assam,26.5,91.4
133131,Naldurg,Maharashtra,17.81667,76.28182
133132,Nalgonda,Telangana,17.16667,79.5
133133,Naliya,Gujarat,23.26058,68.82655
133134,Namakkal,Tamil Nadu,11.3,78.13
133135,Nambiyur,Tamil Nadu,11.35811,77.32115
133136,Nambutalai,Tamil Nadu,9.72766,79.00707
133137,Namchi,Sikkim,27.16494,88.3638
133138,Namli,Madhya Pradesh,23.46115,75.06036
133139,Nanauta,Uttar Pradesh,29.71215,77.41728
133140,Nandambakkam,Tamil Nadu,12.97795,80.06781
133141,Nanded,Maharashtra,18.91667,77.5
133142,Nandgaon,Uttar Pradesh,27.71102,77.38653
133143,Nandigama,Andhra Pradesh,16.7717,80.28596
133144,Nandikotkur,Andhra Pradesh,15.85668,78.26569
133145,Nandurbar,Maharashtra,21.37,74.2
133146,Nandyal,Andhra Pradesh,15.47799,78.4836
133147,Nangal,Punjab,31.38966,76.37574
133148,Nangavalli,Tamil Nadu,11.76189,77.89093
133149,Nangilickondan,Tamil Nadu,12.25539,79.47508
133150,Nanguneri,Tamil Nadu,8.49326,77.65806
133151,Nanjangud,Karnataka,12.11764,76.68397
133152,Nannilam,Tamil Nadu,10.87933,79.61062
133153,Napasar,Rajasthan,27.96059,73.55913
133154,Naraina,Rajasthan,26.79069,75.20608
133155,Naraini,Madhya Pradesh,25.19033,80.475
133156,Narasannapeta,Andhra Pradesh,18.41428,84.04463
133157,Narasapur,Andhra Pradesh,16.43425,81.69845
133158,Narasaraopet,Andhra Pradesh,16.23488,80.04927
133159,Narasimharajapura,Karnataka,13.61075,75.512
133160,Narasingapuram,Andhra Pradesh,13.60759,79.31652
133161,Narauli,Uttar Pradesh,28.48547,78.71484
133162,Naraura,Uttar Pradesh,28.20147,78.38723
133163,Narayanpur,Chhattisgarh,19.60426,81.08119
133164,Naregal,Karnataka,15.57316,75.80805
133165,Narela,Delhi,28.85267,77.09288
133166,Narendranagar,,30.16173,78.28712
133167,Nargund,Karnataka,15.72299,75.38666
133168,Narharpur,Chhattisgarh,20.44892,81.62004
133169,Narmada,Gujarat,21.87377,73.49527
133170,Naroda,Gujarat,23.07041,72.65702
133171,Narsimhapur,Madhya Pradesh,22.91667,79.16667
133172,Narsinghgarh,Madhya Pradesh,23.70758,77.09319
133173,Narsipatnam,Andhra Pradesh,17.66709,82.61245
133174,Narwar,Madhya Pradesh,25.6439,77.9129
133175,Narwana,Haryana,29.59903,76.11927
133176,Narayangarh,Haryana,30.47798,77.12804
133177,Nashik,Maharashtra,19.99727,73.79096
133178,Nashik Division,Maharashtra,19.98295,73.78942
133179,Nasrullahganj,Madhya Pradesh,22.6837,77.27069
133180,Nasirabad,Rajasthan,26.30473,74.73364
133181,Nattam,Tamil Nadu,10.22776,78.22969
133182,Naugachhia,Bihar,25.38807,87.09906
133183,Nautanwa,Uttar Pradesh,27.42752,83.41789
133184,Navalgund,Karnataka,15.55877,75.35305
133185,Navelim,Goa,15.53333,73.98333
133186,Navi Mumbai,Maharashtra,19.03681,73.01582
133187,Navsari,Gujarat,20.95,72.92
133189,Nawalgarh,Rajasthan,27.85161,75.27384
133190,Nawanshahr,Punjab,31.1245,76.11613
133191,Nawabganj,Uttar Pradesh,26.93129,81.19841
133192,Nawada,Bihar,24.75,85.5
133193,Nawanshahr,Jammu and Kashmir,32.76505,74.52772
133194,Naya Bazar,Sikkim,27.13082,88.23972
133195,Nayagarh District,Odisha,20.13,85.1
133196,Nayagarh,Odisha,20.12882,85.09626
133197,Naigarhi,Madhya Pradesh,24.78686,81.77868
133198,Nedumangad,Kerala,8.60267,77.00139
133199,Needamangalam,Tamil Nadu,10.77378,79.41875
133200,Neelankarai,Tamil Nadu,12.9495,80.2592
133201,Neem ka Thana,Rajasthan,27.73976,75.78652
133202,Neemuch,Madhya Pradesh,24.47,74.87
133203,Negapatam,Tamil Nadu,10.76377,79.84313
133204,Nelamangala,Karnataka,13.09978,77.39364
133205,Nellikkuppam,Tamil Nadu,11.77554,79.67016
133206,Nellore,Andhra Pradesh,14.08333,79.58333
133207,Nepanagar,Madhya Pradesh,21.4538,76.39335
133208,Neral,Maharashtra,19.02475,73.31688
133209,Neturhat,Jharkhand,23.47457,84.2678
133210,New Delhi,Delhi,28.63576,77.22445
133211,Neyyattinkara,Kerala,8.39854,77.08586
133212,Nichlaul,Uttar Pradesh,27.31247,83.7253
133213,Nicobar,Andaman and Nicobar Islands,7.03002,93.79028
133214,Nidadavole,Andhra Pradesh,16.90572,81.67222
133215,Nihtaur,Uttar Pradesh,29.32416,78.38724
133216,Nilakottai,Tamil Nadu,10.165,77.85024
133217,Nilanga,Maharashtra,18.11675,76.75279
133218,Nilgiris,Tamil Nadu,11.46,76.64
133219,Nimaparha,Odisha,20.05756,86.00436
133220,Nipani,Maharashtra,16.399,74.38285
133221,Nirmal,Telangana,19.09685,78.34407
133222,Nirmali,Bihar,26.31397,86.58537
133223,Nirsa,Jharkhand,23.78438,86.70692
133224,Niwai,Rajasthan,26.36073,75.91836
133225,Niwari,Uttar Pradesh,28.87611,77.5382
133226,Nizamabad,Telangana,18.75,78.25
133228,Nizamabad,Uttar Pradesh,26.05295,83.05787
133229,Nohar,Rajasthan,29.18292,74.77064
133230,Noida,Uttar Pradesh,28.58,77.33
133231,Nokha,Rajasthan,27.56155,73.47141
133232,Nongpoh,Meghalaya,25.9023,91.87694
133233,Nongstoin,Meghalaya,25.51704,91.26484
133234,North Delhi,Delhi,28.6692,77.22273
133235,North District,Sikkim,27.66667,88.5
133236,North East Delhi,Delhi,28.6869,77.30195
133237,North Garo Hills,Meghalaya,25.89682,90.61602
133238,North Goa,Goa,15.53397,73.96408
133239,North Guwahati,Assam,26.19749,91.7202
133240,North Lakhimpur,Assam,27.23517,94.10357
133241,North Tripura,Tripura,24.1305,92.15552
133242,North Vanlaiphai,Mizoram,23.13227,93.06532
133243,North West Delhi,Delhi,28.70113,77.10154
133244,Noria,Jammu and Kashmir,32.52095,74.79845
133245,Nowrangapur,Odisha,19.23114,82.54826
133246,Noamundi,Jharkhand,22.16094,85.50416
133247,Nuapada,Odisha,20.6,82.5
133248,Numaligarh,Assam,26.62249,93.72225
133249,Nyamti,Karnataka,14.14869,75.57641
133250,Nabha,Punjab,30.37577,76.15292
133251,Nadaun,Himachal Pradesh,31.78303,76.3431
133252,Nadbai,Rajasthan,27.22288,77.19569
133253,Nadapuram,Kerala,11.68465,75.65493
133254,Nagamangala,Karnataka,12.81939,76.75456
133255,Nagar Karnul,Telangana,16.4821,78.32471
133256,Nagaur,Rajasthan,27.20201,73.73394
133257,Nagercoil,Tamil Nadu,8.17899,77.43227
133258,Nagireddipalli,Andhra Pradesh,14.27005,79.10131
133259,Nagod,Madhya Pradesh,24.56924,80.58809
133260,Nagothana,Maharashtra,18.54225,73.13493
133261,Nahan,Himachal Pradesh,30.56029,77.29426
133262,Nalanda,Bihar,25.25,85.58333
133263,Nalagarh,Himachal Pradesh,31.04168,76.72285
133264,Namagiripettai,Tamil Nadu,11.45513,78.26818
133266,Namrup,Assam,27.19395,95.31929
133267,Nandgaon,Maharashtra,20.3068,74.65501
133268,Nandura Buzurg,Maharashtra,20.83417,76.45924
133269,Nangloi Jat,Delhi,28.67957,77.06799
133270,Nanpara,Uttar Pradesh,27.86459,81.50036
133271,Naravarikuppam,Tamil Nadu,13.19133,80.18473
133272,Narnaul,Haryana,28.04444,76.10833
133273,Narnaund,Haryana,29.22047,76.14278
133274,Narsingi,Telangana,18.04468,78.42516
133275,Narayanavanam,Andhra Pradesh,13.42565,79.58881
133276,Narayangarh,Madhya Pradesh,24.27083,75.05007
133277,Narayanpet,Telangana,16.74799,77.4954
133278,Naspur,Telangana,18.84577,79.46165
133279,Nasriganj,Bihar,25.0514,84.32839
133280,Nathdwara,Rajasthan,24.93805,73.82392
133281,Nattarasankottai,Tamil Nadu,9.86905,78.55305
133282,Nawa,Rajasthan,27.0195,75.00226
133283,Nayudupet,Andhra Pradesh,13.90742,79.89465
